id,amount_tsh,date_recorded,funder,gps_height,installer,longitude,latitude,wpt_name,num_private,basin,subvillage,region,region_code,district_code,lga,ward,population,public_meeting,recorded_by,scheme_management,scheme_name,permit,construction_year,extraction_type,extraction_type_group,extraction_type_class,management,management_group,payment,payment_type,water_quality,quality_group,quantity,quantity_group,source,source_type,source_class,waterpoint_type,waterpoint_type_group,status_group
69572,6000,03/14/2011 00:00:00,Roman,1390,Roman,34.93809275,-9.85632177,none,0,LakeNyasa,Mnyusi B,Iringa,11,5,Ludewa,Mundindi,109,True,GeoData Consultants Ltd,VWC,Roman,False,1999,Gravity,Gravity,Gravity,VWC,UserGroup,PayAnnually,Annually,Soft,Good,Enough,Enough,Spring,Spring,Groundwater,CommunalStandpipe,CommunalStandpipe,Functional
48451,500,07/04/2011 00:00:00,Unicef,1703,DWE,34.64243884,-9.10618458,Kwa John Mtenzi,0,Rufiji,Kidudumo,Iringa,11,4,Njombe,Mdandu,35,True,GeoData Consultants Ltd,WUA,wanging'ombe water supply s,True,1978,Gravity,Gravity,Gravity,WUA,UserGroup,PayMonthly,Other,Soft,Good,Dry,Dry,River,RiverOrLake,Surface,CommunalStandpipe,CommunalStandpipe,NonFunctional
18274,500,02/22/2011 00:00:00,Danida,1763,Danid,34.50896732,-9.8944125,none,0,LakeNyasa,Manyanya,Iringa,11,5,Ludewa,Mawengi,1,True,GeoData Consultants Ltd,VWC,Makanj,True,1992,Gravity,Gravity,Gravity,VWC,UserGroup,PayAnnually,Annually,Soft,Good,Enough,Enough,Spring,Spring,Groundwater,CommunalStandpipe,CommunalStandpipe,Functional
48375,200,02/27/2011 00:00:00,Twe,2216,TWE,34.47342985,-9.59498965,none,0,LakeNyasa,Majengo,Iringa,11,4,Njombe,Matola,4,True,GeoData Consultants Ltd,VWC,Kidabu,False,2008,Gravity,Gravity,Gravity,VWC,UserGroup,PayMonthly,Other,Soft,Good,Enough,Enough,Spring,Spring,Groundwater,CommunalStandpipe,CommunalStandpipe,Functional
37862,500,11/03/2013 00:00:00,Isf,672,ISF,37.94002949,-4.12559468,Kinonga,0,Pangani,Mkonga Juu,Kilimanjaro,3,3,Same,Kisiwani,210,True,GeoData Consultants Ltd,Water authority,Mashangwi,True,2011,Gravity,Gravity,Gravity,VWC,UserGroup,PayMonthly,Other,Soft,Good,Enough,Enough,River,RiverOrLake,Surface,CommunalStandpipe,CommunalStandpipe,Functional
55012,500,01/16/2013 00:00:00,Sobodo,200,Kilolo Star,39.37077651,-9.94253166,Ruhoma Primary School,0,RuvumaSouthernCoast,Shuleni,Lindi,80,23,Lindi Rural,Rutamba,260,False,GeoData Consultants Ltd,VWC,Sobodo Borehole Scheme,False,2011,IndiaMarkII,IndiaMarkII,Handpump,VWC,UserGroup,PayMonthly,Other,Soft,Good,Enough,Enough,MachineDbh,BoreHole,Groundwater,HandPump,HandPump,Functional
6696,50,03/16/2011 00:00:00,Private Individual,180,WU,38.36355454,-6.63610419,Kituo Cha Maziwa,0,WamiRuvu,Kudipera,Pwani,6,1,Bagamoyo,Chalinze,150,False,GeoData Consultants Ltd,WUA,Chalinze wate,True,2004,KSB,Submersible,Submersible,PrivateOperator,Commercial,PayPerBucket,PerBucket,Soft,Good,Enough,Enough,River,RiverOrLake,Surface,CommunalStandpipe,CommunalStandpipe,Functional
16583,4000,02/20/2011 00:00:00,Cefa,1955,CEFA,35.89026429,-8.22439872,none,0,Rufiji,Mwanzala,Iringa,11,7,Kilolo,Boma la ng'ombe,100,True,GeoData Consultants Ltd,VWC,Bomala,True,2003,Gravity,Gravity,Gravity,VWC,UserGroup,PayAnnually,Annually,Soft,Good,Enough,Enough,River,RiverOrLake,Surface,CommunalStandpipe,CommunalStandpipe,Functional
70238,25,10/03/2013 00:00:00,Ces(gmbh),710,DWE,37.42002692,-3.47684942,Kwa Lusina,0,Pangani,Reli B,Kilimanjaro,3,4,Moshi Rural,Kahe,50,True,GeoData Consultants Ltd,Water Board,Kirua kahe pumping water trust,True,2008,Submersible,Submersible,Submersible,WaterBoard,UserGroup,PayPerBucket,PerBucket,Soft,Good,Enough,Enough,MachineDbh,BoreHole,Groundwater,CommunalStandpipe,CommunalStandpipe,Functional
52019,500,07/07/2011 00:00:00,European Union,1803,Accra,34.81457364,-9.03250291,Zahanati-Misssion,0,Rufiji,Sokoni,Iringa,11,4,Njombe,Mtwango,250,True,GeoData Consultants Ltd,WUG,Mtwango water supplied sche,True,2011,Gravity,Gravity,Gravity,WUG,UserGroup,PayMonthly,Other,Soft,Good,Enough,Enough,Spring,Spring,Groundwater,CommunalStandpipe,CommunalStandpipe,Functional
18864,4000,02/20/2011 00:00:00,Cefa,1982,CEFA,35.87141325,-8.22756303,none,0,Rufiji,Mlandege Juu,Iringa,11,7,Kilolo,Boma la ng'ombe,70,True,GeoData Consultants Ltd,VWC,Bomala,True,2003,Gravity,Gravity,Gravity,VWC,UserGroup,PayAnnually,Annually,Soft,Good,Enough,Enough,Spring,Spring,Groundwater,CommunalStandpipe,CommunalStandpipe,Functional
25182,1500,04/04/2011 00:00:00,District Council,2169,DWE,34.44128349,-9.18987766,Kwa Bryson Msigwa,0,Rufiji,Ikanga,Iringa,11,4,Njombe,Wangama,20,True,GeoData Consultants Ltd,VWC,wangama water supply scheme,True,2007,Gravity,Gravity,Gravity,VWC,UserGroup,PayAnnually,Annually,Soft,Good,Enough,Enough,Spring,Spring,Groundwater,CommunalStandpipe,CommunalStandpipe,Functional
74197,6,07/03/2013 00:00:00,Ces (gmbh),962,DWE,37.47943592,-3.36819761,Kwa Emanuel Moshi,0,Pangani,Msufini,Kilimanjaro,3,4,Moshi Rural,Kurua Vunjo Mashariki,45,True,GeoData Consultants Ltd,Water Board,Kirua kahe gravity water supply trust,True,2008,Gravity,Gravity,Gravity,WaterBoard,UserGroup,PayPerBucket,PerBucket,Soft,Good,Enough,Enough,Spring,Spring,Groundwater,CommunalStandpipe,CommunalStandpipe,Functional
63542,500,03/23/2011 00:00:00,Rc Church,2049,ACRA,34.68047144,-9.3264772,Kwa Mkapa,0,Rufiji,Usita,Iringa,11,4,Njombe,Imalinyi,75,True,GeoData Consultants Ltd,WUA,Tove Mtwango gravity Scheme,True,2008,Gravity,Gravity,Gravity,WUA,UserGroup,PayMonthly,Other,Soft,Good,Enough,Enough,Spring,Spring,Groundwater,CommunalStandpipe,CommunalStandpipe,Functional
27312,50,03/12/2011 00:00:00,Private Individual,159,WU,38.35356668,-6.63869562,Kessy,0,WamiRuvu,Magwila,Pwani,6,1,Bagamoyo,Chalinze,20,False,GeoData Consultants Ltd,WUA,Chalinze wate,True,2008,KSB,Submersible,Submersible,PrivateOperator,Commercial,PayPerBucket,PerBucket,Soft,Good,Enough,Enough,River,RiverOrLake,Surface,CommunalStandpipe,CommunalStandpipe,NonFunctional
43237,200,01/17/2013 00:00:00,Isf/tacare,1002,ISF and TACARE,29.67098869,-4.7268495999999995,Muungano,0,LakeTanganyika,Kilundo,Kigoma,16,3,Kigoma Rural,Mwamgongo,120,True,GeoData Consultants Ltd,WUG,Chankele/Bubango water project,True,2006,Gravity,Gravity,Gravity,VWC,UserGroup,PayMonthly,Other,Soft,Good,Enough,Enough,River,RiverOrLake,Surface,CommunalStandpipe,CommunalStandpipe,NeedsRepair
39920,200,03/23/2011 00:00:00,Danida,18,DA,38.89040167,-6.55790327,Gedebu,0,WamiRuvu,Shule,Pwani,6,1,Bagamoyo,Kiromo,40,True,GeoData Consultants Ltd,Company,Bagamoyo wate,True,1987,KSB,Submersible,Submersible,VWC,UserGroup,PayMonthly,Other,Soft,Good,Enough,Enough,River,RiverOrLake,Surface,CommunalStandpipe,CommunalStandpipe,NonFunctional
57580,10,02/26/2013 00:00:00,Germany Republi,1409,CES,37.17489041,-3.21646394,Area Two Namba 20,0,Pangani,Tema,Kilimanjaro,3,5,Hai,Masama Mashariki,75,True,GeoData Consultants Ltd,Water Board,Losaa-Kia water supply,True,1999,Gravity,Gravity,Gravity,WaterBoard,UserGroup,PayPerBucket,PerBucket,Soft,Good,Enough,Enough,Spring,Spring,Groundwater,CommunalStandpipe,CommunalStandpipe,Functional
23000,1000,02/16/2013 00:00:00,District Council,744,District Counci,37.61640658,-3.56996907,Kwa Issa Kinanja,0,Pangani,Kwa Nyange,Kilimanjaro,3,2,Mwanga,Jipe,320,True,GeoData Consultants Ltd,VWC,Kwa Nyange water supply,True,2010,Gravity,Gravity,Gravity,VWC,UserGroup,PayMonthly,Other,Soft,Good,Enough,Enough,Spring,Spring,Groundwater,CommunalStandpipe,CommunalStandpipe,Functional
74246,50,03/07/2011 00:00:00,Ruthe,1428,Ruthe,35.63048144,-7.71054858,none,0,Rufiji,Kidete,Iringa,11,1,Iringa Rural,Kiwere,1,True,GeoData Consultants Ltd,VWC,Kiwele,True,2000,Gravity,Gravity,Gravity,VWC,UserGroup,PayPerBucket,PerBucket,Soft,Good,Dry,Dry,Spring,Spring,Groundwater,CommunalStandpipe,CommunalStandpipe,NonFunctional
42031,500,03/23/2011 00:00:00,Rc Church,2050,ACRA,34.64835709,-9.31731152,Kwa Charles Beda,0,Rufiji,Utengule,Iringa,11,4,Njombe,Imalinyi,305,True,GeoData Consultants Ltd,WUA,Tove Mtwango gravity Scheme,True,2008,Gravity,Gravity,Gravity,WUA,UserGroup,PayMonthly,Other,Soft,Good,Enough,Enough,Spring,Spring,Groundwater,CommunalStandpipe,CommunalStandpipe,Functional
60852,20,03/17/2011 00:00:00,World Bank,471,World,37.82346185,-6.771698700000001,Kwa Saidi Gwaja,0,WamiRuvu,Mbuyuni,Morogoro,5,2,Morogoro Rural,Mkambalani,150,True,GeoData Consultants Ltd,VWC,Mkam,True,2004,Gravity,Gravity,Gravity,VWC,UserGroup,PayMonthly,Other,Soft,Good,Enough,Enough,River,RiverOrLake,Surface,CommunalStandpipe,CommunalStandpipe,Functional
42180,1200,01/21/2013 00:00:00,Government Of Tanzania,1242,DWE,30.26413388,-4.52564753,Kwa Mukanda,0,LakeTanganyika,Kagembe B,Kigoma,16,2,Kasulu,Ruhita,560,True,GeoData Consultants Ltd,Water authority,Maji ya kutega,True,1977,Gravity,Gravity,Gravity,WaterBoard,UserGroup,PayAnnually,Annually,Soft,Good,Enough,Enough,River,RiverOrLake,Surface,CommunalStandpipe,CommunalStandpipe,Functional
10715,40,03/09/2011 00:00:00,Private Individual,217,WU,38.33493265,-6.45446888,Maiko,0,WamiRuvu,Sekondari,Pwani,6,1,Bagamoyo,Lugoba,12,True,GeoData Consultants Ltd,WUA,Chalinze wate,True,2010,KSB,Submersible,Submersible,PrivateOperator,Commercial,PayPerBucket,PerBucket,Soft,Good,Enough,Enough,River,RiverOrLake,Surface,CommunalStandpipe,CommunalStandpipe,Functional
41635,500,07/16/2011 00:00:00,Government Of Tanzania,1783,DWE,31.52365762,-8.17864388,Kwa Alfred Mwanandenje,0,LakeTanganyika,Malangilisho,Rukwa,15,2,Sumbawanga Rural,Msanzi,50,True,GeoData Consultants Ltd,VWC,Msanzi Water Supply Sc,True,1972,Gravity,Gravity,Gravity,VWC,UserGroup,PayWhenSchemeFails,OnFailure,Soft,Good,Enough,Enough,River,RiverOrLake,Surface,CommunalStandpipe,CommunalStandpipe,Functional
47459,1000,03/02/2011 00:00:00,Danida,1592,DANID,35.63419525,-7.85014451,none,0,Rufiji,Igavilo,Iringa,11,1,Iringa Rural,Mseke,1,True,GeoData Consultants Ltd,VWC,Meseke,True,1984,Gravity,Gravity,Gravity,VWC,UserGroup,PayMonthly,Other,Soft,Good,Enough,Enough,Spring,Spring,Groundwater,CommunalStandpipe,CommunalStandpipe,Functional
112,30,03/14/2011 00:00:00,Donor,128,WU,38.34276796,-6.60873088,Shabaan Jubwa,0,WamiRuvu,Chalinze Mzee A,Pwani,6,1,Bagamoyo,Chalinze,50,True,GeoData Consultants Ltd,WUA,Chalinze wate,True,2010,KSB,Submersible,Submersible,WUA,UserGroup,PayPerBucket,PerBucket,Soft,Good,Enough,Enough,River,RiverOrLake,Surface,CommunalStandpipe,CommunalStandpipe,NonFunctional
4807,25000,04/14/2011 00:00:00,Secondary Schoo,1768,secondary school,34.71600987,-9.12973959,Head Master,0,Rufiji,Sadani,Iringa,11,4,Njombe,Mdandu,25,True,GeoData Consultants Ltd,WUA,wanging'ombe water supply s,True,1987,Gravity,Gravity,Gravity,WUA,UserGroup,PayMonthly,Other,Soft,Good,Enough,Enough,River,RiverOrLake,Surface,CommunalStandpipe,CommunalStandpipe,Functional
26540,50,01/18/2013 00:00:00,Ministry Of Water,1135,DWE,33.50998861,-2.15235319,Shuleni,0,LakeVictoria,Stooni,Mara,20,4,Bunda,Neruma,100,True,GeoData Consultants Ltd,VWC,Kasahunga pipe scheme,True,1978,Gravity,Gravity,Gravity,Parastatal,Parastatal,PayPerBucket,PerBucket,Soft,Good,Enough,Enough,Lake,RiverOrLake,Surface,CommunalStandpipe,CommunalStandpipe,NonFunctional
34636,10,03/15/2011 00:00:00,Government Of Tanzania,205,RW,38.23544422,-6.63641192,Kiwembe,0,WamiRuvu,Kudibona,Pwani,6,1,Bagamoyo,Chalinze,100,True,GeoData Consultants Ltd,VWC,Matuli/Mdaula,True,1982,KSB,Submersible,Submersible,VWC,UserGroup,PayPerBucket,PerBucket,Soft,Good,Enough,Enough,Dam,Dam,Surface,CommunalStandpipe,CommunalStandpipe,NonFunctional
52520,10,03/18/2013 00:00:00,Germany,1685,Dmdd,35.88015611,-3.25083059,Kwa Gabriel,0,Internal,Qanqali,Arusha,24,30,Karatu,Mbulumbulu,200,True,GeoData Consultants Ltd,VWC,Vyama vya watumia maji,True,2009,Gravity,Gravity,Gravity,VWC,UserGroup,PayPerBucket,PerBucket,Soft,Good,Enough,Enough,River,RiverOrLake,Surface,CommunalStandpipe,CommunalStandpipe,Functional
37562,500,03/23/2013 00:00:00,Government Of Tanzania,1897,DWE,36.65057433,-3.2526794,Kwa Lazaro,0,Pangani,Olama,Arusha,2,2,Arusha Rural,Olkokola,150,True,GeoData Consultants Ltd,VWC,Olkokola pipe line,True,2000,Gravity,Gravity,Gravity,VWC,UserGroup,PayWhenSchemeFails,OnFailure,Soft,Good,Enough,Enough,Spring,Spring,Groundwater,CommunalStandpipe,CommunalStandpipe,Functional
4907,500,02/27/2011 00:00:00,World Bank,373,Gwasco L,37.50789059,-6.26635194,Kwa Makumba,0,WamiRuvu,Zahanati,Morogoro,5,6,Mvomero,Hembeti,1,True,GeoData Consultants Ltd,VWC,Dimamba,True,2005,Gravity,Gravity,Gravity,VWC,UserGroup,PayMonthly,Other,Soft,Good,Enough,Enough,River,RiverOrLake,Surface,CommunalStandpipe,CommunalStandpipe,NeedsRepair
46893,50,03/30/2011 00:00:00,Af,1261,AF,36.83283068,-6.09538776,Kwa Kalebi,0,WamiRuvu,Ofsini,Morogoro,5,1,Kilosa,Rubeho,250,True,GeoData Consultants Ltd,VWC,Ma,True,2006,Submersible,Submersible,Submersible,VWC,UserGroup,PayPerBucket,PerBucket,Soft,Good,Enough,Enough,MachineDbh,BoreHole,Groundwater,CommunalStandpipe,CommunalStandpipe,NonFunctional
51694,2000,03/09/2011 00:00:00,Danida,1007,DANID,35.06153079,-7.91507677,none,0,Rufiji,Uyamba,Iringa,11,1,Iringa Rural,Mahuninga,1,True,GeoData Consultants Ltd,VWC,Mahuni,True,1989,Gravity,Gravity,Gravity,VWC,UserGroup,PayAnnually,Annually,Soft,Good,Enough,Enough,Spring,Spring,Groundwater,CommunalStandpipe,CommunalStandpipe,Functional
1780,2000,03/15/2011 00:00:00,Danida,1114,DANID,35.87761667,-7.42197042,none,0,Rufiji,Madibila,Iringa,11,1,Iringa Rural,Kihorogota,1,True,GeoData Consultants Ltd,VWC,Jihoro,True,1991,Gravity,Gravity,Gravity,VWC,UserGroup,PayAnnually,Annually,Soft,Good,Enough,Enough,Spring,Spring,Groundwater,CommunalStandpipe,CommunalStandpipe,Functional
21704,6,06/03/2013 00:00:00,Ces(gmbh),1421,DWE,37.43964118,-3.31993627,Kwa Alphonce Kesi,0,Pangani,Lole,Kilimanjaro,3,4,Moshi Rural,Kirua Vunjo Magharibi,30,True,GeoData Consultants Ltd,Water Board,Kirua kahe gravity water supply trust,True,2008,Gravity,Gravity,Gravity,WaterBoard,UserGroup,PayPerBucket,PerBucket,Soft,Good,Enough,Enough,Spring,Spring,Groundwater,CommunalStandpipe,CommunalStandpipe,Functional
24948,500,03/27/2011 00:00:00,Wananchi,1244,wananchi,34.63225535,-8.72031632,Ofisini,0,Rufiji,Kati,Iringa,11,4,Njombe,Wanging'ombe,55,True,GeoData Consultants Ltd,WUA,wanging'ombe supply scheme,True,2009,Gravity,Gravity,Gravity,WUA,UserGroup,PayMonthly,Other,Soft,Good,Seasonal,Seasonal,River,RiverOrLake,Surface,CommunalStandpipe,CommunalStandpipe,Functional
4321,1000,03/02/2011 00:00:00,Danida,1591,DANID,35.62422947,-7.86001982,none,0,Rufiji,Njia Panda A,Iringa,11,1,Iringa Rural,Mseke,1,True,GeoData Consultants Ltd,VWC,Meseke,True,1984,Gravity,Gravity,Gravity,VWC,UserGroup,PayMonthly,Other,Soft,Good,Enough,Enough,Spring,Spring,Groundwater,CommunalStandpipe,CommunalStandpipe,Functional
70835,10,03/15/2013 00:00:00,Hans,1602,Hans,35.73363834,-3.30450464,Qwahasau,0,Internal,Juu,Arusha,24,30,Karatu,Rhotia,150,True,GeoData Consultants Ltd,VWC,Mowasu,True,1992,Gravity,Gravity,Gravity,VWC,UserGroup,PayPerBucket,PerBucket,Soft,Good,Enough,Enough,River,RiverOrLake,Surface,CommunalStandpipe,CommunalStandpipe,Functional
17861,200,02/17/2013 00:00:00,Government Of Tanzania,482,Government,34.89217109,-11.35532944,Kwa Mzee Chivalu,0,LakeNyasa,Likalo,Ruvuma,10,3,Mbinga,Mtipwili,86,True,GeoData Consultants Ltd,VWC,Government,True,2008,Gravity,Gravity,Gravity,VWC,UserGroup,PayMonthly,Other,Soft,Good,Enough,Enough,Spring,Spring,Groundwater,CommunalStandpipe,CommunalStandpipe,Functional
40592,1000,04/04/2011 00:00:00,Rc Church,2179,RC CHURCH,34.41769364,-9.21264691,Kwa Leyndi Chengula,0,Rufiji,Ilulu A,Iringa,11,4,Njombe,Wangama,75,True,GeoData Consultants Ltd,VWC,imalilo water supply scheme,True,2000,Gravity,Gravity,Gravity,VWC,UserGroup,PayAnnually,Annually,Soft,Good,Dry,Dry,Spring,Spring,Groundwater,CommunalStandpipe,CommunalStandpipe,NonFunctional
65101,200,03/09/2011 00:00:00,Dhv,887,DWE,36.714157,-8.73986417,Mwacheapotee,0,Rufiji,Koloa,Morogoro,5,4,Ulanga,Isongo,203,True,GeoData Consultants Ltd,WUA,Isongo w,True,1995,Gravity,Gravity,Gravity,WUG,UserGroup,PayMonthly,Other,Soft,Good,Enough,Enough,Spring,Spring,Groundwater,CommunalStandpipe,CommunalStandpipe,Functional
26577,30,02/20/2013 00:00:00,Shawasa,917,SHAWASA,36.98516699,-3.56223676,Songambele,0,Pangani,Songambele,Manyara,21,4,Simanjiro,Mererani,200,True,GeoData Consultants Ltd,Water authority,Mirerani pipe scheme,True,2000,Submersible,Submersible,Submersible,WaterAuthority,Commercial,PayPerBucket,PerBucket,Soft,Good,Enough,Enough,MachineDbh,BoreHole,Groundwater,CommunalStandpipe,CommunalStandpipe,Functional
39548,250,02/19/2013 00:00:00,Norad,1325,NORAD,30.20482368,-4.50371347,Kwa Ntazi,0,LakeTanganyika,Tabirugu,Kigoma,16,2,Kasulu,Ruhita,210,True,GeoData Consultants Ltd,Water authority,Kyonza,True,1988,Gravity,Gravity,Gravity,WaterBoard,UserGroup,PayMonthly,Other,Soft,Good,Enough,Enough,River,RiverOrLake,Surface,CommunalStandpipe,CommunalStandpipe,NonFunctional
59102,7200,03/17/2013 00:00:00,Private Individual,1726,Dmdd,35.91834892,-3.17692667,Kwa Tiaini,0,Internal,Kituma,Arusha,24,30,Karatu,Mbulumbulu,100,True,GeoData Consultants Ltd,VWC,Vyama vya watumia maji,True,2002,Gravity,Gravity,Gravity,VWC,UserGroup,PayAnnually,Annually,Coloured,Colored,Enough,Enough,River,RiverOrLake,Surface,CommunalStandpipe,CommunalStandpipe,Functional
74217,20,06/04/2013 00:00:00,Government Of Tanzania,1020,DWE,36.68729462,-3.58425942,Kwa Koluduni,0,Pangani,Ujamaa,Arusha,2,2,Arusha Rural,Oljoro,100,True,GeoData Consultants Ltd,VWC,Olumulo pipe line,True,2010,Gravity,Gravity,Gravity,VWC,UserGroup,PayPerBucket,PerBucket,Soft,Good,Enough,Enough,Spring,Spring,Groundwater,CommunalStandpipe,CommunalStandpipe,Functional
7007,500,02/22/2011 00:00:00,Danida,1694,Danid,34.50392432,-9.87356716,none,0,LakeNyasa,Kiwanja,Iringa,11,5,Ludewa,Mawengi,95,True,GeoData Consultants Ltd,VWC,Jongoj,True,1992,Gravity,Gravity,Gravity,VWC,UserGroup,PayAnnually,Annually,Soft,Good,Enough,Enough,Spring,Spring,Groundwater,CommunalStandpipe,CommunalStandpipe,Functional
38725,500,04/16/2011 00:00:00,Roman Catholic,1804,ACRA,34.76969867,-9.12297853,Kilabuni,0,Rufiji,Kati,Iringa,11,4,Njombe,Mdandu,130,True,GeoData Consultants Ltd,WUA,mtwango water supply scheme,True,2009,Gravity,Gravity,Gravity,WUA,UserGroup,PayMonthly,Other,Soft,Good,Enough,Enough,Spring,Spring,Groundwater,CommunalStandpipe,CommunalStandpipe,Functional
23835,20,03/19/2011 00:00:00,World Bank,459,World,37.819264000000004,-6.77130648,Kwa Mama Nyanga,0,WamiRuvu,Mbuyuni,Morogoro,5,2,Morogoro Rural,Mkambalani,250,True,GeoData Consultants Ltd,VWC,Mkam,True,2004,Gravity,Gravity,Gravity,VWC,UserGroup,PayPerBucket,PerBucket,Soft,Good,Enough,Enough,River,RiverOrLake,Surface,CommunalStandpipe,CommunalStandpipe,Functional
3740,6000,03/03/2011 00:00:00,Danida,1529,DANID,35.57900029,-7.86736004,none,0,Rufiji,Ilangi,Iringa,11,1,Iringa Rural,Kalenga,1,True,GeoData Consultants Ltd,VWC,kaleng,True,1985,Gravity,Gravity,Gravity,VWC,UserGroup,PayAnnually,Annually,Soft,Good,Enough,Enough,Spring,Spring,Groundwater,CommunalStandpipe,CommunalStandpipe,Functional
15832,50,03/22/2013 00:00:00,0,30,0,39.17840407,-6.93801296,Ccm Kivule,0,WamiRuvu,Mtaa Wa Kivule,Dar es Salaam,7,2,Ilala,Msongola,100,,GeoData Consultants Ltd,WUG,N,False,2000,Submersible,Submersible,Submersible,WUG,UserGroup,PayPerBucket,PerBucket,Soft,Good,Enough,Enough,MachineDbh,BoreHole,Groundwater,CommunalStandpipe,CommunalStandpipe,NonFunctional
4437,10,09/03/2013 00:00:00,Giz,813,KILI WATER,37.48326369,-3.39258445,Kwa Mghanga Mwajabu,0,Pangani,Karamsingi,Kilimanjaro,3,4,Moshi Rural,Kirua Vunjo Kusini,50,True,GeoData Consultants Ltd,WUA,Uchira water users association,True,2001,Gravity,Gravity,Gravity,WUA,UserGroup,PayPerBucket,PerBucket,Soft,Good,Enough,Enough,Spring,Spring,Groundwater,CommunalStandpipe,CommunalStandpipe,Functional
65584,5,03/30/2013 00:00:00,Ces (gmbh),1038,DWE,37.27119332,-3.29718526,Kwa Peter Kanuni Munishi,0,Pangani,Muyuni,Kilimanjaro,3,4,Moshi Rural,Kindi,30,True,GeoData Consultants Ltd,Water Board,Lyamungo umbwe water supply,True,2007,Gravity,Gravity,Gravity,WaterBoard,UserGroup,PayPerBucket,PerBucket,Soft,Good,Enough,Enough,River,RiverOrLake,Surface,CommunalStandpipe,CommunalStandpipe,Functional
29052,3600,01/29/2013 00:00:00,Government Of Tanzania,899,DWE,29.82376296,-4.87487688,Sokoni,0,LakeTanganyika,Msunuzi,Kigoma,16,3,Kigoma Rural,Matendo,220,True,GeoData Consultants Ltd,WUG,Kidahwe water project,True,1979,Gravity,Gravity,Gravity,VWC,UserGroup,PayAnnually,Annually,Soft,Good,Enough,Enough,River,RiverOrLake,Surface,CommunalStandpipe,CommunalStandpipe,Functional
60111,500,04/16/2011 00:00:00,Roman Catholic,1842,ACRA,34.78207959,-9.12239269,Kwa Litroce Ng'Eve,0,Rufiji,Mvinila,Iringa,11,4,Njombe,Mdandu,85,True,GeoData Consultants Ltd,WUA,mtwango water supply scheme,True,2009,Gravity,Gravity,Gravity,WUA,UserGroup,PayMonthly,Other,Soft,Good,Enough,Enough,Spring,Spring,Groundwater,CommunalStandpipe,CommunalStandpipe,Functional
54678,500,04/14/2011 00:00:00,Rc Church,1929,ACRA,34.70473384,-9.20234087,Kwa Michael Mlowe,0,Rufiji,Uchiliwala,Iringa,11,4,Njombe,Mdandu,95,True,GeoData Consultants Ltd,WUA,mtwango water supply scheme,True,2009,Gravity,Gravity,Gravity,WUA,UserGroup,PayMonthly,Other,Soft,Good,Enough,Enough,Spring,Spring,Groundwater,CommunalStandpipe,CommunalStandpipe,Functional
59053,200,03/12/2011 00:00:00,Government Of Tanzania,1874,DWE,38.24712015,-4.558200599999999,Kwa Mzee Saidi Chando,0,Pangani,Mtimui,Tanga,4,1,Lushoto,Rangwi,1,True,GeoData Consultants Ltd,VWC,Shagayo forest,True,1978,Gravity,Gravity,Gravity,VWC,UserGroup,PayMonthly,Other,Soft,Good,Enough,Enough,Spring,Spring,Groundwater,CommunalStandpipe,CommunalStandpipe,Functional
30897,1000,03/03/2011 00:00:00,Ebaha,2116,Villa,34.77865965,-9.49554502,none,0,Rufiji,Majengo,Iringa,11,4,Njombe,Uwemba,30,True,GeoData Consultants Ltd,VWC,Ngabav,False,1996,Submersible,Submersible,Submersible,VWC,UserGroup,PayMonthly,Other,Soft,Good,Enough,Enough,Spring,Spring,Groundwater,CommunalStandpipe,CommunalStandpipe,NonFunctional
8699,500,04/18/2011 00:00:00,Rcchurch/cefa,1573,RCchurch/CEFA,35.14300047,-9.260030800000001,Tag,0,Rufiji,Iyembela B,Iringa,11,4,Njombe,Lupembe,150,True,GeoData Consultants Ltd,WUA,matembwe water supply schem,True,1975,Gravity,Gravity,Gravity,WUA,UserGroup,PayMonthly,Other,Soft,Good,Enough,Enough,River,RiverOrLake,Surface,CommunalStandpipe,CommunalStandpipe,Functional
59263,10,03/18/2013 00:00:00,Germany,1527,Dmdd,35.85723778,-3.27581345,Kwa Murai,0,Internal,Sabasaba,Arusha,24,30,Karatu,Mbulumbulu,200,True,GeoData Consultants Ltd,VWC,Vyama vya watumia maji,True,2009,Gravity,Gravity,Gravity,VWC,UserGroup,PayPerBucket,PerBucket,Soft,Good,Enough,Enough,River,RiverOrLake,Surface,CommunalStandpipe,CommunalStandpipe,Functional
19283,300,02/24/2011 00:00:00,Adb,1337,DWE,35.09692286,-9.08118607,Kwa Cosmas Nguguvale,0,Rufiji,Ulinzi,Iringa,11,4,Njombe,Ikuka,40,True,GeoData Consultants Ltd,VWC,Lima gravity water scheme,False,2008,Gravity,Gravity,Gravity,VWC,UserGroup,PayMonthly,Other,Soft,Good,Enough,Enough,River,RiverOrLake,Surface,CommunalStandpipe,CommunalStandpipe,Functional
41968,25,01/28/2013 00:00:00,World Bank,93,GEN,39.58807065,-9.83372178,Bombani,0,RuvumaSouthernCoast,Lumumba,Lindi,80,23,Lindi Rural,Matimba,650,True,GeoData Consultants Ltd,VWC,World Bank Water Project,False,2012,IndiaMarkII,IndiaMarkII,Handpump,VWC,UserGroup,PayPerBucket,PerBucket,Soft,Good,Enough,Enough,MachineDbh,BoreHole,Groundwater,HandPump,HandPump,Functional
38379,50,03/17/2011 00:00:00,Missi,682,Missi,35.75921856,-7.16360762,none,0,Rufiji,Nyerere,Iringa,11,1,Iringa Rural,Izazi,1,True,GeoData Consultants Ltd,VWC,Migoli,True,2010,Gravity,Gravity,Gravity,VWC,UserGroup,PayPerBucket,PerBucket,Salty,Salty,Enough,Enough,Spring,Spring,Groundwater,CommunalStandpipe,CommunalStandpipe,Functional
24691,40000,02/23/2011 00:00:00,Idc,1711,DWE,35.40879448,-8.11294506,none,0,Rufiji,Ulete,Iringa,11,1,Iringa Rural,Ifunda,430,True,GeoData Consultants Ltd,VWC,Muwimb,True,2010,Gravity,Gravity,Gravity,VWC,UserGroup,PayAnnually,Annually,Soft,Good,Enough,Enough,Spring,Spring,Groundwater,CommunalStandpipe,CommunalStandpipe,Functional
48401,200,03/03/2011 00:00:00,Government Of Tanzania,552,Gover,36.28278515,-7.35113771,none,0,Rufiji,Sokoni,Iringa,11,7,Kilolo,Mahenge,150,True,GeoData Consultants Ltd,VWC,Nyazwa,True,1984,Gravity,Gravity,Gravity,VWC,UserGroup,PayMonthly,Other,Soft,Good,Enough,Enough,River,RiverOrLake,Surface,CommunalStandpipe,CommunalStandpipe,NonFunctional
63864,2000,03/01/2011 00:00:00,Danida,1529,DANID,35.91395802,-7.71758867,none,0,Rufiji,Mkawaganga,Iringa,11,7,Kilolo,Irole,100,True,GeoData Consultants Ltd,VWC,mbigil,True,1985,Gravity,Gravity,Gravity,VWC,UserGroup,PayAnnually,Annually,Soft,Good,Enough,Enough,River,RiverOrLake,Surface,CommunalStandpipe,CommunalStandpipe,Functional
30174,500,04/16/2011 00:00:00,Roman Catholic,1855,ACRA,34.78081095,-9.13627542,Kwa Cosola Kambo,0,Rufiji,Zahanati,Iringa,11,4,Njombe,Mdandu,125,True,GeoData Consultants Ltd,WUA,mtwango water supply scheme,True,2009,Gravity,Gravity,Gravity,WUA,UserGroup,PayMonthly,Other,Soft,Good,Enough,Enough,Spring,Spring,Groundwater,CommunalStandpipe,CommunalStandpipe,Functional
42350,3000,03/17/2011 00:00:00,Danida,1912,DANID,34.79339337,-9.72901698,none,0,LakeNyasa,Mjimwema,Iringa,11,5,Ludewa,Madilu,90,True,GeoData Consultants Ltd,VWC,DANIDA,False,1993,Gravity,Gravity,Gravity,VWC,UserGroup,PayAnnually,Annually,Soft,Good,Dry,Dry,Spring,Spring,Groundwater,CommunalStandpipe,CommunalStandpipe,NonFunctional
51133,200,03/11/2011 00:00:00,Government Of Tanzania,1836,DWE,38.25670091,-4.563839700000001,Kwa Mzee Mussa,0,Pangani,Magagai 2,Tanga,4,1,Lushoto,Rangwi,1,True,GeoData Consultants Ltd,VWC,Shagayo forest,True,1978,Gravity,Gravity,Gravity,VWC,UserGroup,PayMonthly,Other,Soft,Good,Enough,Enough,Spring,Spring,Groundwater,CommunalStandpipe,CommunalStandpipe,Functional
8757,200,03/24/2011 00:00:00,Co,316,Co,36.99765607,-7.59014094,Kwa Musiondo,0,Rufiji,Nyamizoka,Morogoro,5,1,Kilosa,Kidodi,80,True,GeoData Consultants Ltd,WUG,Iw,True,2011,Gravity,Gravity,Gravity,WUG,UserGroup,PayWhenSchemeFails,OnFailure,Soft,Good,Enough,Enough,River,RiverOrLake,Surface,CommunalStandpipe,CommunalStandpipe,Functional
22928,500,06/03/2013 00:00:00,Isf,500,ISF,38.07832005,-4.48076136,Msikitini,0,Pangani,Mbuyuni,Kilimanjaro,3,3,Same,Kihurio,140,True,GeoData Consultants Ltd,Water authority,Saseni,,2013,Gravity,Gravity,Gravity,VWC,UserGroup,PayWhenSchemeFails,OnFailure,Soft,Good,Enough,Enough,River,RiverOrLake,Surface,CommunalStandpipe,CommunalStandpipe,NonFunctional
36067,200,02/11/2013 00:00:00,Norad,959,DWE,29.64793205,-4.76804596,Shule Ya Msingi Mgaraganza,0,LakeTanganyika,Mgaraganza,Kigoma,16,3,Kigoma Rural,Kagongo,560,True,GeoData Consultants Ltd,Parastatal,Mgaraganza water project,True,1984,Gravity,Gravity,Gravity,Parastatal,Parastatal,PayMonthly,Other,Soft,Good,Enough,Enough,Spring,Spring,Groundwater,CommunalStandpipe,CommunalStandpipe,NeedsRepair
59405,500,04/14/2011 00:00:00,Rc Church,1888,ACRA,34.67564069,-9.18968342,Kwa Daniels Ndondolo,0,Rufiji,Mondelo,Iringa,11,4,Njombe,Mdandu,50,True,GeoData Consultants Ltd,WUA,mtwango water supply scheme,True,2009,Gravity,Gravity,Gravity,WUA,UserGroup,PayMonthly,Other,Soft,Good,Enough,Enough,Spring,Spring,Groundwater,CommunalStandpipe,CommunalStandpipe,Functional
3777,500,07/16/2011 00:00:00,Government Of Tanzania,1763,DWE,31.51670542,-8.18619122,Kwa Charles Dominick,0,LakeTanganyika,Msanzi Kati,Rukwa,15,2,Sumbawanga Rural,Msanzi,100,True,GeoData Consultants Ltd,VWC,Msanzi water Supply,True,1972,Gravity,Gravity,Gravity,VWC,UserGroup,PayWhenSchemeFails,OnFailure,Soft,Good,Enough,Enough,River,RiverOrLake,Surface,CommunalStandpipe,CommunalStandpipe,Functional
4636,500,02/22/2011 00:00:00,Danida,1674,Danid,34.49341359,-9.84568307,none,0,LakeNyasa,Sambala,Iringa,11,5,Ludewa,Mawengi,1,True,GeoData Consultants Ltd,VWC,Jongoj,False,1992,Gravity,Gravity,Gravity,VWC,UserGroup,PayAnnually,Annually,Soft,Good,Enough,Enough,Spring,Spring,Groundwater,CommunalStandpipe,CommunalStandpipe,Functional
35726,20,03/04/2011 00:00:00,Private Individual,281,WU,38.4059458,-6.12010157,Mtaula,0,WamiRuvu,Mwanakibwengo,Pwani,6,1,Bagamoyo,Miono,10,True,GeoData Consultants Ltd,WUA,Chalinze wate,True,2003,KSB,Submersible,Submersible,PrivateOperator,Commercial,PayPerBucket,PerBucket,Soft,Good,Enough,Enough,River,RiverOrLake,Surface,CommunalStandpipe,CommunalStandpipe,Functional
11811,1000,07/28/2011 00:00:00,Il,1667,CONS,31.17657926,-7.84847244,Kwa Mundye,0,LakeRukwa,Godown,Rukwa,15,3,Nkasi,Kate,300,True,GeoData Consultants Ltd,VWC,K,True,1983,Gravity,Gravity,Gravity,VWC,UserGroup,PayAnnually,Annually,Soft,Good,Enough,Enough,River,RiverOrLake,Surface,CommunalStandpipe,CommunalStandpipe,Functional
53518,250,01/21/2013 00:00:00,Government Of Tanzania,1255,DWE,30.29392803,-4.57232332,Kwa Eliyasi,0,LakeTanganyika,Mwenge,Kigoma,16,2,Kasulu,Ruhita,970,True,GeoData Consultants Ltd,Water authority,Kwagwisembeza,True,1993,Gravity,Gravity,Gravity,WaterBoard,UserGroup,PayMonthly,Other,Soft,Good,Enough,Enough,River,RiverOrLake,Surface,CommunalStandpipe,CommunalStandpipe,NonFunctional
11447,50,01/21/2013 00:00:00,Government Of Tanzania,109,DWE,38.99315731,-9.25518964,Kwachopoti,0,RuvumaSouthernCoast,Kijijini,Lindi,80,13,Kilwa,Likawage,630,True,GeoData Consultants Ltd,WUG,Likawage Water supply,False,1976,Submersible,Submersible,Submersible,WUG,UserGroup,PayPerBucket,PerBucket,Soft,Good,Enough,Enough,MachineDbh,BoreHole,Groundwater,CommunalStandpipe,CommunalStandpipe,NeedsRepair
23819,200,03/23/2011 00:00:00,Danida,15,DA,38.88491495,-6.51620381,Adalus,0,WamiRuvu,Baukani B,Pwani,6,1,Bagamoyo,Magomeni,40,True,GeoData Consultants Ltd,Company,Bagamoyo wate,True,1993,KSB,Submersible,Submersible,VWC,UserGroup,PayMonthly,Other,Soft,Good,Enough,Enough,River,RiverOrLake,Surface,CommunalStandpipe,CommunalStandpipe,NonFunctional
72474,300,03/31/2011 00:00:00,Dhv,262,DWE,36.94933741,-7.70517682,Mkala,0,Rufiji,Kidatu A,Morogoro,5,3,Kilombero,Kidatu,75,True,GeoData Consultants Ltd,Company,Ikela Wa,True,1995,Gravity,Gravity,Gravity,VWC,UserGroup,PayMonthly,Other,Soft,Good,Enough,Enough,River,RiverOrLake,Surface,CommunalStandpipe,CommunalStandpipe,Functional
13685,500,03/11/2011 00:00:00,Government Of Tanzania,282,DWE,36.12458333,-8.31955912,Kwamakero,0,Rufiji,Mchombe A,Morogoro,5,3,Kilombero,Mchombe,40,True,GeoData Consultants Ltd,Company,Ikela Wa,True,2003,Gravity,Gravity,Gravity,VWC,UserGroup,PayWhenSchemeFails,OnFailure,Soft,Good,Enough,Enough,River,RiverOrLake,Surface,CommunalStandpipe,CommunalStandpipe,Functional
42339,500,03/23/2011 00:00:00,Rc Church,1989,ACRA,34.67756553,-9.29217,Kwa Cosmas Mayavilwa,0,Rufiji,Malamba,Iringa,11,4,Njombe,Imalinyi,90,True,GeoData Consultants Ltd,WUA,Tove Mtwango gravity Scheme,True,2008,Gravity,Gravity,Gravity,WUA,UserGroup,PayMonthly,Other,Soft,Good,Enough,Enough,Spring,Spring,Groundwater,CommunalStandpipe,CommunalStandpipe,Functional
64144,30,03/09/2011 00:00:00,Private Individual,231,WU,38.32831948,-6.46228226,Urio,0,WamiRuvu,Maendeleo,Pwani,6,1,Bagamoyo,Lugoba,12,True,GeoData Consultants Ltd,WUA,Chalinze wate,True,2005,KSB,Submersible,Submersible,PrivateOperator,Commercial,PayPerBucket,PerBucket,Soft,Good,Enough,Enough,River,RiverOrLake,Surface,CommunalStandpipe,CommunalStandpipe,Functional
25220,250,02/18/2013 00:00:00,Norad,1282,NORAD,30.15802804,-4.4842508,Kwa Obadia,0,LakeTanganyika,Runyogoza,Kigoma,16,2,Kasulu,Kigondo,230,True,GeoData Consultants Ltd,Water authority,Chovora,True,1984,Gravity,Gravity,Gravity,VWC,UserGroup,PayMonthly,Other,Soft,Good,Enough,Enough,River,RiverOrLake,Surface,CommunalStandpipe,CommunalStandpipe,Functional
19574,500,02/10/2013 00:00:00,Danida,575,DANIDA,37.23245087,-10.95524842,Kwa Mzee Mwarange,0,RuvumaSouthernCoast,Majengo,Ruvuma,10,1,Tunduru,Nandembo,1,True,GeoData Consultants Ltd,VWC,Nandembo Water Supply,False,1992,Gravity,Gravity,Gravity,VWC,UserGroup,PayWhenSchemeFails,OnFailure,Soft,Good,Enough,Enough,River,RiverOrLake,Surface,CommunalStandpipe,CommunalStandpipe,NeedsRepair
63423,6,07/03/2013 00:00:00,Ces (gmbh),1279,DWE,37.48989428,-3.33275629,Kwa Benadeta Limo,0,Pangani,Mria,Kilimanjaro,3,4,Moshi Rural,Kurua Vunjo Mashariki,40,True,GeoData Consultants Ltd,Water Board,Kirua kahe gravity water supply trust,True,2008,Gravity,Gravity,Gravity,WaterBoard,UserGroup,PayPerBucket,PerBucket,Soft,Good,Enough,Enough,Spring,Spring,Groundwater,CommunalStandpipe,CommunalStandpipe,Functional
69883,7,03/19/2013 00:00:00,Germany Republi,1147,CES,37.22321463,-3.27186256,Kwa Naike,0,Pangani,Msufini,Kilimanjaro,3,5,Hai,Machame Kaskazini,60,True,GeoData Consultants Ltd,Water Board,Machame water supply,True,2008,Gravity,Gravity,Gravity,WaterBoard,UserGroup,PayPerBucket,PerBucket,Soft,Good,Enough,Enough,Spring,Spring,Groundwater,CommunalStandpipe,CommunalStandpipe,Functional
32164,500,08/04/2011 00:00:00,Unicef,1545,DWE,34.62732988,-9.018736599999999,Kwa Serf Mgaya,0,Rufiji,Makungu,Iringa,11,4,Njombe,Usuka,55,True,GeoData Consultants Ltd,WUA,wanging'ombe water supply s,True,1978,Gravity,Gravity,Gravity,WUA,UserGroup,PayMonthly,Other,Soft,Good,Enough,Enough,River,RiverOrLake,Surface,CommunalStandpipe,CommunalStandpipe,Functional
42431,200,02/27/2011 00:00:00,Twe,2140,TWE,34.46720492,-9.60961559,none,0,LakeNyasa,Ulindiwa,Iringa,11,4,Njombe,Matola,14,True,GeoData Consultants Ltd,VWC,Kidabu,False,2008,Gravity,Gravity,Gravity,VWC,UserGroup,PayMonthly,Other,Soft,Good,Enough,Enough,Spring,Spring,Groundwater,CommunalStandpipe,CommunalStandpipe,Functional
61759,50,02/06/2013 00:00:00,Salim Ahmed Salim,-30,MTUWASA,40.14849132,-10.3085438,Kwa Salim Ahmed Salim,0,RuvumaSouthernCoast,Mbae Mashariki,Mtwara,9,5,Mtwara Urban,Ufukoni,210,True,GeoData Consultants Ltd,Private operator,Mbae,True,2007,Submersible,Submersible,Submersible,PrivateOperator,Commercial,PayPerBucket,PerBucket,Soft,Good,Seasonal,Seasonal,MachineDbh,BoreHole,Groundwater,CommunalStandpipe,CommunalStandpipe,Functional
64031,500,03/17/2011 00:00:00,Eu/acra,1811,ACRA,34.79124481,-9.08448985,Kkkt Church,0,Rufiji,Nyamagala,Iringa,11,4,Njombe,Mtwango,120,True,GeoData Consultants Ltd,VWC,Tove Mtwango gravity Scheme,True,2010,Gravity,Gravity,Gravity,VWC,UserGroup,PayMonthly,Other,Soft,Good,Enough,Enough,Spring,Spring,Groundwater,CommunalStandpipe,CommunalStandpipe,Functional
18488,1000,03/21/2011 00:00:00,Sabemo,1584,Chamavita,38.35606753,-4.724289499999999,Kwa France Athumani,6,Pangani,Gezaulole,Tanga,4,1,Lushoto,Kwai,1,True,GeoData Consultants Ltd,VWC,Mangamba forest,True,1989,Gravity,Gravity,Gravity,VWC,UserGroup,PayMonthly,Other,Soft,Good,Enough,Enough,Spring,Spring,Groundwater,CommunalStandpipe,CommunalStandpipe,Functional
8080,30,02/06/2013 00:00:00,Unicef,28,Unisef,39.97562125,-10.40988387,Hospital,0,RuvumaSouthernCoast,Dihimba,Mtwara,99,1,Mtwara Rural,Dihimba,300,True,GeoData Consultants Ltd,VWC,Dihimba water supply,True,1978,Mono,Mono,Motorpump,VWC,UserGroup,PayPerBucket,PerBucket,Soft,Good,Enough,Enough,MachineDbh,BoreHole,Groundwater,CommunalStandpipe,CommunalStandpipe,Functional
5562,500,03/21/2011 00:00:00,Co,306,Co,36.99682521,-7.59934122,Kwa Mgoe,0,Rufiji,Kisiwani,Morogoro,5,1,Kilosa,Kidodi,90,True,GeoData Consultants Ltd,VWC,It,True,2011,Gravity,Gravity,Gravity,WUG,UserGroup,PayWhenSchemeFails,OnFailure,Soft,Good,Enough,Enough,River,RiverOrLake,Surface,CommunalStandpipe,CommunalStandpipe,Functional
43732,500,03/08/2011 00:00:00,Government Of Tanzania,1631,DWE,38.23641817,-4.4836218,Kwa Mzee Rajabu,0,Pangani,Kilimia,Tanga,4,1,Lushoto,Sunga,1,True,GeoData Consultants Ltd,VWC,Shengui forest,True,1971,Gravity,Gravity,Gravity,VWC,UserGroup,PayMonthly,Other,Soft,Good,Enough,Enough,Spring,Spring,Groundwater,CommunalStandpipe,CommunalStandpipe,Functional
21623,2000,03/05/2011 00:00:00,Danida,1418,DANID,36.108195,-7.53817622,none,0,Rufiji,Zahanati,Iringa,11,7,Kilolo,Image,100,True,GeoData Consultants Ltd,VWC,Ilawa,True,1984,Gravity,Gravity,Gravity,VWC,UserGroup,PayAnnually,Annually,Soft,Good,Enough,Enough,River,RiverOrLake,Surface,CommunalStandpipe,CommunalStandpipe,NonFunctional
66682,300,03/11/2011 00:00:00,Danida,760,Danid,35.47403093,-7.52190307,none,0,Rufiji,Motomoto,Iringa,11,1,Iringa Rural,Ilolo Mpya,1,True,GeoData Consultants Ltd,VWC,Ilolo,True,1985,Gravity,Gravity,Gravity,VWC,UserGroup,PayMonthly,Other,Soft,Good,Dry,Dry,Spring,Spring,Groundwater,CommunalStandpipe,CommunalStandpipe,NonFunctional
47075,50,03/30/2011 00:00:00,Af,1255,AF,36.83373961,-6.09721349,Kwa Magawa,0,WamiRuvu,Ofsini,Morogoro,5,1,Kilosa,Rubeho,150,True,GeoData Consultants Ltd,VWC,Ma,True,2010,Submersible,Submersible,Submersible,VWC,UserGroup,PayPerBucket,PerBucket,Soft,Good,Enough,Enough,MachineDbh,BoreHole,Groundwater,CommunalStandpipe,CommunalStandpipe,NonFunctional
38293,5000,03/16/2011 00:00:00,Danida,1195,DANID,35.84256324,-7.40121381,none,0,Rufiji,Kihesa,Iringa,11,1,Iringa Rural,Kihorogota,1,True,GeoData Consultants Ltd,VWC,Nyang',True,1998,Gravity,Gravity,Gravity,VWC,UserGroup,PayAnnually,Annually,Soft,Good,Enough,Enough,Spring,Spring,Groundwater,CommunalStandpipe,CommunalStandpipe,Functional
40102,1000,03/15/2011 00:00:00,Rc Church,2143,RC CHURCH,34.5410369,-9.31648179,Kkkt Church,0,LakeNyasa,Isanzike,Iringa,11,4,Njombe,Igosi,70,True,GeoData Consultants Ltd,VWC,MAKOGA WATER SUPPLY,False,2000,Gravity,Gravity,Gravity,VWC,UserGroup,PayAnnually,Annually,Soft,Good,Enough,Enough,Spring,Spring,Groundwater,CommunalStandpipe,CommunalStandpipe,Functional
60171,5000,07/30/2011 00:00:00,Lga,881,DWE,31.38282241,-7.4291217000000005,Kwa Misayo,0,LakeRukwa,Kilida Kona,Rukwa,15,1,Mpanda,Mamba,150,True,GeoData Consultants Ltd,VWC,Mto China,True,2011,Gravity,Gravity,Gravity,VWC,UserGroup,PayAnnually,Annually,Soft,Good,Enough,Enough,Spring,Spring,Groundwater,CommunalStandpipe,CommunalStandpipe,Functional
60688,50,03/06/2011 00:00:00,District Council,-1,DWE,38.86915816,-5.40820783,Kwa Omari Yobu,0,Pangani,Mseko,Tanga,4,5,Pangani,Ubangaa,120,True,GeoData Consultants Ltd,VWC,Mseko water supply,False,1973,Gravity,Gravity,Gravity,VWC,UserGroup,PayPerBucket,PerBucket,Soft,Good,Enough,Enough,River,RiverOrLake,Surface,CommunalStandpipe,CommunalStandpipe,Functional
37241,20,03/07/2011 00:00:00,Wua,323,WU,38.30640491,-6.12962513,Kwa Juma Haji,0,WamiRuvu,Togo,Pwani,6,1,Bagamoyo,Mbwewe,200,True,GeoData Consultants Ltd,WUA,Chalinze wate,True,2006,KSB,Submersible,Submersible,WUA,UserGroup,PayPerBucket,PerBucket,Soft,Good,Enough,Enough,River,RiverOrLake,Surface,CommunalStandpipe,CommunalStandpipe,Functional
37507,20,02/21/2013 00:00:00,Mac,872,Maji block,37.0227058,-3.51595684,Shuleni,0,Pangani,Oloshonokie,Manyara,21,4,Simanjiro,Mererani,200,True,GeoData Consultants Ltd,Private operator,Naisinyia pipe scheme,True,2004,Submersible,Submersible,Submersible,PrivateOperator,Commercial,PayPerBucket,PerBucket,Soft,Good,Enough,Enough,MachineDbh,BoreHole,Groundwater,CommunalStandpipe,CommunalStandpipe,Functional
8988,500,03/11/2011 00:00:00,Ki,1376,Ki,36.86105576,-6.25897367,Kkkt,0,WamiRuvu,Mjini,Morogoro,5,1,Kilosa,Rubeho,150,True,GeoData Consultants Ltd,VWC,Ru,True,2001,Gravity,Gravity,Gravity,VWC,UserGroup,PayMonthly,Other,Soft,Good,Enough,Enough,Spring,Spring,Groundwater,CommunalStandpipe,CommunalStandpipe,Functional
61169,250,02/18/2013 00:00:00,Villagers,1282,Villagers,30.15822767,-4.48237453,Kwa Lazaro,0,LakeTanganyika,Mugongo,Kigoma,16,2,Kasulu,Kigondo,240,True,GeoData Consultants Ltd,Water authority,Chovora,True,2006,Gravity,Gravity,Gravity,VWC,UserGroup,PayMonthly,Other,Soft,Good,Enough,Enough,River,RiverOrLake,Surface,CommunalStandpipe,CommunalStandpipe,Functional
61060,50,02/25/2011 00:00:00,Danida,36,DA,38.84170952,-6.58882735,Kwa Malungo,0,WamiRuvu,Miwaleni,Pwani,6,1,Bagamoyo,Yombo,50,False,GeoData Consultants Ltd,Company,Bagamoyo Wate,True,1988,Mono,Mono,Motorpump,PrivateOperator,Commercial,PayPerBucket,PerBucket,Soft,Good,Enough,Enough,River,RiverOrLake,Surface,CommunalStandpipe,CommunalStandpipe,Functional
33006,7,11/03/2013 00:00:00,Germany Republi,1517,CES,37.22749305,-3.20228969,Nkwarumbe Shule Ya Msingi,0,Pangani,Manyire,Kilimanjaro,3,5,Hai,Machame Kaskazini,183,True,GeoData Consultants Ltd,Water Board,Machame water supply,True,2008,Gravity,Gravity,Gravity,WaterBoard,UserGroup,PayPerBucket,PerBucket,Soft,Good,Enough,Enough,Spring,Spring,Groundwater,CommunalStandpipe,CommunalStandpipe,Functional
6171,1000,02/24/2011 00:00:00,Rc Ch,2178,RC Ch,34.59701788,-9.58696798,none,0,LakeNyasa,Ilala,Iringa,11,4,Njombe,Matola,25,True,GeoData Consultants Ltd,VWC,Magang,False,2000,Gravity,Gravity,Gravity,VWC,UserGroup,PayAnnually,Annually,Soft,Good,Enough,Enough,Spring,Spring,Groundwater,CommunalStandpipe,CommunalStandpipe,Functional
25354,5000,02/25/2011 00:00:00,Private,94,DWE,38.86668324,-6.76283155,Mushi,0,WamiRuvu,Kigero,Pwani,6,2,Kibaha,Soga,6,True,GeoData Consultants Ltd,Parastatal,upper Ruvu,True,2010,Mono,Mono,Motorpump,PrivateOperator,Commercial,PayMonthly,Other,Soft,Good,Enough,Enough,River,RiverOrLake,Surface,CommunalStandpipe,CommunalStandpipe,Functional
24752,10,04/03/2013 00:00:00,Germany Republi,1484,CES,37.17312469,-3.20475339,Area Two Namba 23,0,Pangani,Nkwambati,Kilimanjaro,3,5,Hai,Masama Magharibi,90,True,GeoData Consultants Ltd,Water Board,Losaa Kia water supply,True,1999,Gravity,Gravity,Gravity,WaterBoard,UserGroup,PayPerBucket,PerBucket,Soft,Good,Enough,Enough,Spring,Spring,Groundwater,CommunalStandpipe,CommunalStandpipe,Functional
36513,500,03/28/2013 00:00:00,Mbiuwasa,1307,MBIUWASA,35.01227875,-10.93811199,Jimboni,0,LakeNyasa,Jimboni,Ruvuma,10,3,Mbinga,Mbinga Urban,60,,GeoData Consultants Ltd,Water Board,BRUDER,True,2000,Gravity,Gravity,Gravity,WaterBoard,UserGroup,PayMonthly,Other,Soft,Good,Enough,Enough,Spring,Spring,Groundwater,CommunalStandpipe,CommunalStandpipe,Functional
28016,100,01/31/2013 00:00:00,Government Of Tanzania,1178,Distri,32.05435429,-6.719839599999999,Shuleni,0,LakeRukwa,Isengo A,Rukwa,15,1,Mpanda,Inyonga,450,True,GeoData Consultants Ltd,VWC,Inyonga water supply,True,2012,Mono,Mono,Motorpump,VWC,UserGroup,PayPerBucket,PerBucket,Soft,Good,Enough,Enough,MachineDbh,BoreHole,Groundwater,CommunalStandpipe,CommunalStandpipe,Functional
25243,200,03/23/2011 00:00:00,Danida,20,DA,38.89222176,-6.55518496,Ayubu,0,WamiRuvu,Vigoda,Pwani,6,1,Bagamoyo,Kiromo,120,True,GeoData Consultants Ltd,Company,Bagamoyo wate,True,1987,KSB,Submersible,Submersible,VWC,UserGroup,PayMonthly,Other,Soft,Good,Enough,Enough,River,RiverOrLake,Surface,CommunalStandpipe,CommunalStandpipe,NonFunctional
28993,3000,03/07/2011 00:00:00,Roman,1445,DWE,34.66608182,-10.11737861,none,0,LakeNyasa,Kilimahewa,Iringa,11,5,Ludewa,Ludewa,75,True,GeoData Consultants Ltd,Water Board,Roman,False,2001,Gravity,Gravity,Gravity,WaterBoard,UserGroup,PayMonthly,Other,Soft,Good,Enough,Enough,River,RiverOrLake,Surface,CommunalStandpipe,CommunalStandpipe,Functional
22402,200,02/27/2011 00:00:00,Twe,2171,TWE,34.47702934,-9.61093958,none,0,LakeNyasa,Ichimbo,Iringa,11,4,Njombe,Matola,8,True,GeoData Consultants Ltd,VWC,Kidabu,False,2008,Gravity,Gravity,Gravity,VWC,UserGroup,PayMonthly,Other,Soft,Good,Enough,Enough,Spring,Spring,Groundwater,CommunalStandpipe,CommunalStandpipe,NeedsRepair
50841,500,06/04/2011 00:00:00,Unicef,1716,DWE,34.68011713,-9.10287383,Kwa Shadrack Mkongwi,0,Rufiji,Isupilo,Iringa,11,4,Njombe,Mdandu,75,True,GeoData Consultants Ltd,WUA,wanging'ombe water supply s,True,1978,Gravity,Gravity,Gravity,WUA,UserGroup,PayMonthly,Other,Soft,Good,Enough,Enough,River,RiverOrLake,Surface,CommunalStandpipe,CommunalStandpipe,Functional
69168,5,03/13/2013 00:00:00,Germany Republi,917,CES,37.12804102,-3.37455275,Kwa Magreth Mseka,0,Pangani,Shabaha,Kilimanjaro,3,5,Hai,Hai Urban,500,True,GeoData Consultants Ltd,Water Board,Uroki-Bomang'ombe water sup,True,1999,Gravity,Gravity,Gravity,WaterBoard,UserGroup,PayPerBucket,PerBucket,Soft,Good,Enough,Enough,Spring,Spring,Groundwater,CommunalStandpipe,CommunalStandpipe,Functional
5071,20,02/25/2011 00:00:00,African,387,Kuwait,37.44218701,-6.30481702,Kwa Bonge,0,WamiRuvu,Mtunge,Morogoro,5,6,Mvomero,Mvomero,1,False,GeoData Consultants Ltd,Private operator,Vugiro,True,2009,Submersible,Submersible,Submersible,PrivateOperator,Commercial,PayPerBucket,PerBucket,Salty,Salty,Enough,Enough,MachineDbh,BoreHole,Groundwater,CommunalStandpipe,CommunalStandpipe,Functional
54056,6,02/03/2013 00:00:00,Ces(gmbh),1629,DWE,37.45107256,-3.29403073,Kwa Marry Ndesenia,0,Pangani,Wandeni,Kilimanjaro,3,4,Moshi Rural,Kirua Vunjo Magharibi,70,True,GeoData Consultants Ltd,Water Board,Kirua kahe gravity water supply trust,True,2008,Gravity,Gravity,Gravity,WaterBoard,UserGroup,PayPerBucket,PerBucket,Soft,Good,Enough,Enough,Spring,Spring,Groundwater,CommunalStandpipe,CommunalStandpipe,Functional
61131,3000,03/12/2011 00:00:00,Government Of Tanzania,1348,DWE,34.68737093,-10.11053,none,0,LakeNyasa,Makorongoni,Iringa,11,5,Ludewa,Ludewa,70,True,GeoData Consultants Ltd,VWC,Centra,False,1999,Gravity,Gravity,Gravity,VWC,UserGroup,PayMonthly,Other,Soft,Good,Enough,Enough,River,RiverOrLake,Surface,CommunalStandpipe,CommunalStandpipe,NeedsRepair
47384,250,02/14/2013 00:00:00,Oxfam,1409,OXFAM,30.10540086,-4.36713441,Ofisi Ya Kijiji,0,LakeTanganyika,Kamana,Kigoma,16,2,Kasulu,Munyegera,620,True,GeoData Consultants Ltd,Water authority,Mtobo,True,1996,Gravity,Gravity,Gravity,WaterBoard,UserGroup,PayMonthly,Other,Soft,Good,Enough,Enough,River,RiverOrLake,Surface,CommunalStandpipe,CommunalStandpipe,Functional
30758,50,02/09/2013 00:00:00,Private Individual,606,Dr. Matobola,37.16901334,-10.71757308,Kwa Abdalah Bello,0,RuvumaSouthernCoast,Tuleane,Ruvuma,10,1,Tunduru,Ligunga,1,False,GeoData Consultants Ltd,Private operator,Twendembele Water Supply,False,2011,Submersible,Submersible,Submersible,PrivateOperator,Commercial,PayPerBucket,PerBucket,Soft,Good,Enough,Enough,MachineDbh,BoreHole,Groundwater,CommunalStandpipe,CommunalStandpipe,Functional
11249,200,03/09/2011 00:00:00,Anglican Church,1758,Angli,34.60868542,-9.77940111,none,0,LakeNyasa,Changalawe,Iringa,11,5,Ludewa,Mlangali,45,True,GeoData Consultants Ltd,VWC,Anglic,False,2001,Gravity,Gravity,Gravity,VWC,UserGroup,PayMonthly,Other,Soft,Good,Enough,Enough,Spring,Spring,Groundwater,CommunalStandpipe,CommunalStandpipe,Functional
21946,20,03/29/2011 00:00:00,Go,1197,Go,36.89894516,-6.10009329,Mission,0,WamiRuvu,Mohogoigwa,Morogoro,5,1,Kilosa,Kibedya,150,True,GeoData Consultants Ltd,VWC,Ga,True,1975,Gravity,Gravity,Gravity,VWC,UserGroup,PayPerBucket,PerBucket,Soft,Good,Enough,Enough,Spring,Spring,Groundwater,CommunalStandpipe,CommunalStandpipe,Functional
20011,500,01/03/2011 00:00:00,Tz Japan,1667,DWE,34.90973851,-8.96651368,Kwa Jimi Kinyamagoa,0,Rufiji,Igongolo Kati,Iringa,11,4,Njombe,Igongolo,80,True,GeoData Consultants Ltd,VWC,Igongolo gravity water sche,False,2006,Gravity,Gravity,Gravity,VWC,UserGroup,PayMonthly,Other,Soft,Good,Enough,Enough,Spring,Spring,Groundwater,CommunalStandpipe,CommunalStandpipe,Functional
34298,300,02/18/2013 00:00:00,Roman Cathoric Same,927,District Council,37.68101702,-3.78304532,Kwa Romans Kiluvya,0,Pangani,Mabashura,Kilimanjaro,3,2,Mwanga,Kwakoa,1,True,GeoData Consultants Ltd,VWC,Ngulu water supply,False,1992,Gravity,Gravity,Gravity,VWC,UserGroup,PayMonthly,Other,Soft,Good,Enough,Enough,Spring,Spring,Groundwater,CommunalStandpipe,CommunalStandpipe,Functional
24034,2800,03/01/2011 00:00:00,Government Of Tanzania,1551,Gover,35.86448753,-7.74621128,none,0,Rufiji,Lungerengere,Iringa,11,7,Kilolo,Irole,25,True,GeoData Consultants Ltd,VWC,lugalo,True,2001,Gravity,Gravity,Gravity,VWC,UserGroup,PayAnnually,Annually,Soft,Good,Enough,Enough,Spring,Spring,Groundwater,CommunalStandpipe,CommunalStandpipe,Functional
30990,100,10/22/2012 00:00:00,Ministry Of Water,1195,MTN,34.04220222,-1.12198399,Arombe,0,LakeVictoria,Arombe,Mara,20,6,Tarime,Tai,300,True,GeoData Consultants Ltd,VWC,Mradi wa maji vijijini,False,1972,Submersible,Submersible,Submersible,VWC,UserGroup,PayPerBucket,PerBucket,Soft,Good,Enough,Enough,Lake,RiverOrLake,Surface,CommunalStandpipe,CommunalStandpipe,NonFunctional
23296,500,03/26/2011 00:00:00,Caritas,320,DWE,36.40445422,-8.67348892,Kwa Simbaliana,0,Rufiji,Njiwa Kati,Morogoro,5,4,Ulanga,Itete,269,True,GeoData Consultants Ltd,Water Board,Itete wa,True,2006,Gravity,Gravity,Gravity,VWC,UserGroup,PayMonthly,Other,Soft,Good,Dry,Dry,River,RiverOrLake,Surface,CommunalStandpipe,CommunalStandpipe,Functional
13244,500,01/18/2013 00:00:00,Tcrs,1303,TCRS,30.48396889,-5.6163702,Headquarters,0,LakeTanganyika,Headquarters,Rukwa,15,1,Mpanda,Mishamo,1,True,GeoData Consultants Ltd,VWC,Kashutakasimba,True,1980,Gravity,Gravity,Gravity,VWC,UserGroup,PayMonthly,Other,Soft,Good,Enough,Enough,Spring,Spring,Groundwater,CommunalStandpipe,CommunalStandpipe,NeedsRepair
2427,10,08/03/2011 00:00:00,Government Of Tanzania,26,DWE,39.05502082,-5.05565842,Polisi,0,Pangani,Msfuriko C,Tanga,4,4,Tanga,Mzizima,25,True,GeoData Consultants Ltd,VWC,Mzizima Water,True,2009,Gravity,Gravity,Gravity,VWC,UserGroup,PayPerBucket,PerBucket,Soft,Good,Enough,Enough,River,RiverOrLake,Surface,CommunalStandpipe,CommunalStandpipe,Functional
15178,4000,03/14/2011 00:00:00,Danida,940,DANID,36.01417354,-7.29024669,none,0,Rufiji,Stand B,Iringa,11,1,Iringa Rural,Malenga Makali,1,True,GeoData Consultants Ltd,VWC,Maleng,True,1990,Gravity,Gravity,Gravity,VWC,UserGroup,PayAnnually,Annually,Soft,Good,Seasonal,Seasonal,Spring,Spring,Groundwater,CommunalStandpipe,CommunalStandpipe,Functional
38261,500,09/02/2013 00:00:00,Danida,484,DANIDA,34.66685635,-11.09121638,Kwa Mzee Komba,0,LakeNyasa,Nkaya,Ruvuma,10,3,Mbinga,Liuli,90,True,GeoData Consultants Ltd,VWC,DANIDA,True,1992,Gravity,Gravity,Gravity,VWC,UserGroup,PayMonthly,Other,Soft,Good,Dry,Dry,Spring,Spring,Groundwater,CommunalStandpipe,CommunalStandpipe,NonFunctional
8734,500,03/23/2011 00:00:00,Rc Church,2068,ACRA,34.66369573,-9.31873846,Kwa Kristus Chaula,0,Rufiji,Kitichi,Iringa,11,4,Njombe,Imalinyi,150,True,GeoData Consultants Ltd,WUA,Tove Mtwango gravity Scheme,True,2008,Gravity,Gravity,Gravity,WUA,UserGroup,PayMonthly,Other,Soft,Good,Enough,Enough,Spring,Spring,Groundwater,CommunalStandpipe,CommunalStandpipe,Functional
32760,6,03/13/2013 00:00:00,Ces(gmbh),711,DWE,37.52156393,-3.44731155,Kwa Mariam Salile,0,Pangani,Njoro,Kilimanjaro,3,4,Moshi Rural,Kahe Mashariki,180,True,GeoData Consultants Ltd,Water Board,Kirua kahe gravity water supply trust,True,2008,Gravity,Gravity,Gravity,WaterBoard,UserGroup,PayPerBucket,PerBucket,Soft,Good,Enough,Enough,Spring,Spring,Groundwater,CommunalStandpipe,CommunalStandpipe,Functional
11879,200,02/23/2011 00:00:00,Tz Japan,1721,DWE,34.92292282,-9.14583278,Kwa Chungwa,0,Rufiji,Mahata,Iringa,11,4,Njombe,Ikuka,120,True,GeoData Consultants Ltd,VWC,Ikuna gravity water project,False,2008,Gravity,Gravity,Gravity,VWC,UserGroup,PayMonthly,Other,Soft,Good,Enough,Enough,Spring,Spring,Groundwater,CommunalStandpipe,CommunalStandpipe,Functional
25132,2000,02/25/2011 00:00:00,Anglican Church,1798,Angli,35.93034589,-8.25966148,none,0,Rufiji,Makongoga,Iringa,11,7,Kilolo,Boma la ng'ombe,35,True,GeoData Consultants Ltd,VWC,Isanga,True,2009,Gravity,Gravity,Gravity,VWC,UserGroup,PayAnnually,Annually,Soft,Good,Enough,Enough,Spring,Spring,Groundwater,CommunalStandpipe,CommunalStandpipe,Functional
37522,200,01/18/2013 00:00:00,Dwe,1237,DWE,30.3192299,-4.31201781,Kwa Sumbuko,0,LakeTanganyika,Rusesa,Kigoma,16,2,Kasulu,Kitagata,250,True,GeoData Consultants Ltd,Water authority,Nyachenda,True,2003,Gravity,Gravity,Gravity,VWC,UserGroup,PayMonthly,Other,Soft,Good,Enough,Enough,Spring,Spring,Groundwater,CommunalStandpipe,CommunalStandpipe,Functional
11736,500,02/28/2011 00:00:00,Tz Japan,1649,DWE,34.91687863,-8.96603222,Kwa Anzwelise Chongolo,0,Rufiji,Igongolo Kati,Iringa,11,4,Njombe,Igongolo,120,True,GeoData Consultants Ltd,VWC,Igongolo gravity water sche,False,2006,Gravity,Gravity,Gravity,VWC,UserGroup,PayMonthly,Other,Soft,Good,Enough,Enough,Spring,Spring,Groundwater,CommunalStandpipe,CommunalStandpipe,Functional
48621,3000,03/16/2011 00:00:00,Roman,1141,wanan,35.08551612,-9.87884452,none,0,LakeNyasa,Mjimwema,Iringa,11,5,Ludewa,Mavanga,152,True,GeoData Consultants Ltd,VWC,Roman,False,2007,Gravity,Gravity,Gravity,VWC,UserGroup,PayMonthly,Other,Soft,Good,Dry,Dry,Spring,Spring,Groundwater,CommunalStandpipe,CommunalStandpipe,NonFunctional
47870,200,01/17/2013 00:00:00,Msf/tacare,1106,MSF/TACARE,29.68442893,-4.69940189,Shule Ya Msingi Chankele,0,LakeTanganyika,Mbalizi,Kigoma,16,3,Kigoma Rural,Mwamgongo,855,True,GeoData Consultants Ltd,WUG,Chankele/Bubango water project,True,2006,Gravity,Gravity,Gravity,VWC,UserGroup,PayMonthly,Other,Soft,Good,Enough,Enough,River,RiverOrLake,Surface,CommunalStandpipe,CommunalStandpipe,Functional
21067,1500,03/03/2011 00:00:00,Fathe,2004,Fathe,34.81688229,-9.54322773,none,0,LakeNyasa,Kati,Iringa,11,4,Njombe,Uwemba,250,True,GeoData Consultants Ltd,VWC,Mwande,False,2006,Gravity,Gravity,Gravity,VWC,UserGroup,PayAnnually,Annually,Soft,Good,Enough,Enough,Spring,Spring,Groundwater,CommunalStandpipe,CommunalStandpipe,Functional
31034,6,04/03/2013 00:00:00,Ces(gmbh),1071,DWE,37.46365287,-3.35191841,Kwa Teresia Minja,0,Pangani,Uparo,Kilimanjaro,3,4,Moshi Rural,Kirua Vunjo Kusini,15,True,GeoData Consultants Ltd,Water Board,Kirua kahe gravity water supply trust,True,2008,Gravity,Gravity,Gravity,WaterBoard,UserGroup,PayPerBucket,PerBucket,Soft,Good,Enough,Enough,Spring,Spring,Groundwater,CommunalStandpipe,CommunalStandpipe,Functional
29950,20,02/28/2011 00:00:00,Water User As,263,Wa,38.38453306,-6.31156494,Rajabu Ally,0,WamiRuvu,Kihangaiko,Pwani,6,1,Bagamoyo,Msata,20,True,GeoData Consultants Ltd,WUA,Chalinze wate,True,2003,KSB,Submersible,Submersible,WUA,UserGroup,PayPerBucket,PerBucket,Soft,Good,Enough,Enough,River,RiverOrLake,Surface,CommunalStandpipe,CommunalStandpipe,NonFunctional
66603,20,03/04/2011 00:00:00,Wua,300,WU,38.40456611,-6.12399125,Gari Bovu,0,WamiRuvu,Mwanakibwengo,Pwani,6,1,Bagamoyo,Miono,10,True,GeoData Consultants Ltd,WUA,Chalinze wate,True,2003,KSB,Submersible,Submersible,WUA,UserGroup,PayPerBucket,PerBucket,Soft,Good,Enough,Enough,River,RiverOrLake,Surface,CommunalStandpipe,CommunalStandpipe,Functional
57174,30,03/28/2011 00:00:00,District Council,460,Handeni Trunk Main(,38.23424145,-5.35169253,Kwa Salim Ngaido,5,Pangani,Bwembwela B,Tanga,4,6,Handeni,Sindeni,200,False,GeoData Consultants Ltd,VWC,Handeni Trunk Main(H,True,1975,Submersible,Submersible,Submersible,VWC,UserGroup,PayPerBucket,PerBucket,Soft,Good,Enough,Enough,River,RiverOrLake,Surface,CommunalStandpipe,CommunalStandpipe,Functional
46378,7,03/20/2013 00:00:00,Germany Republi,1192,CES,37.22649694,-3.25852673,Kwa Naike,0,Pangani,Muro,Kilimanjaro,3,5,Hai,Machame Kaskazini,90,True,GeoData Consultants Ltd,Water Board,Machame water supply,True,2008,Gravity,Gravity,Gravity,WaterBoard,UserGroup,PayPerBucket,PerBucket,Soft,Good,Enough,Enough,Spring,Spring,Groundwater,CommunalStandpipe,CommunalStandpipe,Functional
57258,2200,02/28/2011 00:00:00,Shipo,1871,SHIPO,34.80504620000001,-9.64886054,none,0,LakeNyasa,Gangitakulo,Iringa,11,4,Njombe,Luponde,22,True,GeoData Consultants Ltd,WUA,Luholo,True,2005,Gravity,Gravity,Gravity,WUA,UserGroup,PayAnnually,Annually,Soft,Good,Enough,Enough,Spring,Spring,Groundwater,CommunalStandpipe,CommunalStandpipe,Functional
20028,6000,03/14/2011 00:00:00,Roman,1335,Roman,34.95403156,-9.86733493,none,0,LakeNyasa,Myoruwa,Iringa,11,5,Ludewa,Mundindi,80,True,GeoData Consultants Ltd,VWC,Roman,False,1999,Gravity,Gravity,Gravity,VWC,UserGroup,PayAnnually,Annually,Soft,Good,Enough,Enough,Spring,Spring,Groundwater,CommunalStandpipe,CommunalStandpipe,Functional
33725,20,01/20/2013 00:00:00,Japan Government,18,Japan Government,39.57785607,-10.14574164,Kwa Mzee Mputwa,0,RuvumaSouthernCoast,Makonde,Lindi,80,23,Lindi Rural,Kiwalala,124,True,GeoData Consultants Ltd,VWC,JAICA Borehole Scheme,False,2006,IndiaMarkII,IndiaMarkII,Handpump,VWC,UserGroup,PayPerBucket,PerBucket,Salty,Salty,Enough,Enough,MachineDbh,BoreHole,Groundwater,HandPump,HandPump,Functional
14102,500,08/04/2011 00:00:00,Unicef,1681,DWE,34.6576725,-9.05905825,Kwa Mang'Enya Mfikwa,0,Rufiji,Kiwele,Iringa,11,4,Njombe,Usuka,75,True,GeoData Consultants Ltd,WUA,wanging'ombe water supply s,True,1978,Gravity,Gravity,Gravity,WUA,UserGroup,PayMonthly,Other,Soft,Good,Enough,Enough,River,RiverOrLake,Surface,CommunalStandpipe,CommunalStandpipe,Functional
30106,500,03/21/2011 00:00:00,Acra,2108,ACRA,34.60696123,-9.3743838,Usalule,0,Rufiji,Idono,Iringa,11,4,Njombe,Imalinyi,150,True,GeoData Consultants Ltd,VWC,Tove mtwango,True,2008,Gravity,Gravity,Gravity,VWC,UserGroup,PayMonthly,Other,Soft,Good,Enough,Enough,Spring,Spring,Groundwater,CommunalStandpipe,CommunalStandpipe,Functional
42642,20,02/21/2013 00:00:00,World Vision,878,World vision,37.02978253,-3.51025829,Kwa Dadi,0,Pangani,Naisinyia,Manyara,21,4,Simanjiro,Mererani,200,True,GeoData Consultants Ltd,Private operator,Naisinyia pipe scheme,True,2004,Submersible,Submersible,Submersible,PrivateOperator,Commercial,PayPerBucket,PerBucket,Soft,Good,Enough,Enough,MachineDbh,BoreHole,Groundwater,CommunalStandpipe,CommunalStandpipe,Functional
40320,500,02/27/2011 00:00:00,Government Of Tanzania,1730,DWE,34.89385388,-9.06079526,J M Makweta Secondary Sch,0,Rufiji,Mtakuja,Iringa,11,4,Njombe,Igongolo,20,True,GeoData Consultants Ltd,Water Board,Upami gravity water scheme,False,2007,Gravity,Gravity,Gravity,WaterBoard,UserGroup,PayWhenSchemeFails,OnFailure,Soft,Good,Enough,Enough,Spring,Spring,Groundwater,CommunalStandpipe,CommunalStandpipe,Functional
19257,10,02/28/2013 00:00:00,Germany Republi,1245,CES,37.18765377,-3.24862615,Area 17 Namba 31,0,Pangani,Nkwarumbe,Kilimanjaro,3,5,Hai,Masama Mashariki,60,True,GeoData Consultants Ltd,Water Board,Losaa-Kia water supply,True,1999,Gravity,Gravity,Gravity,WaterBoard,UserGroup,PayPerBucket,PerBucket,Soft,Good,Enough,Enough,Spring,Spring,Groundwater,CommunalStandpipe,CommunalStandpipe,Functional
36547,40,03/26/2011 00:00:00,District Council,343,Handeni Trunk Main(,38.41549591,-5.22788756,Kwa Ally Yasini,25,Pangani,Msufini,Tanga,4,6,Handeni,Kwamatuku,150,True,GeoData Consultants Ltd,VWC,Handeni Trunk Main(H,True,1980,Submersible,Submersible,Submersible,VWC,UserGroup,PayPerBucket,PerBucket,Soft,Good,Enough,Enough,River,RiverOrLake,Surface,CommunalStandpipe,CommunalStandpipe,NonFunctional
17596,20,03/12/2011 00:00:00,China Government,206,Ch,38.32033652,-6.55684072,Mbegu,0,WamiRuvu,Tumbi Chini,Pwani,6,1,Bagamoyo,Lugoba,60,True,GeoData Consultants Ltd,WUA,Chalinze wate,True,2003,KSB,Submersible,Submersible,WUA,UserGroup,PayPerBucket,PerBucket,Soft,Good,Enough,Enough,River,RiverOrLake,Surface,CommunalStandpipe,CommunalStandpipe,Functional
68432,500,03/18/2013 00:00:00,Government Of Tanzania,1247,Government,35.02640546,-11.56432357,Kwa Mzee Mwanyanje,0,LakeNyasa,Tz One,Ruvuma,10,3,Mbinga,Tingi,350,True,GeoData Consultants Ltd,VWC,Government,True,2007,Gravity,Gravity,Gravity,VWC,UserGroup,PayMonthly,Other,Soft,Good,Enough,Enough,Spring,Spring,Groundwater,CommunalStandpipe,CommunalStandpipe,Functional
57826,5500,08/03/2013 00:00:00,Private Individual,547,DWE,38.04647227,-4.26904114,Kwa Elibahati,0,Pangani,Mabatini,Kilimanjaro,3,3,Same,Maore,100,True,GeoData Consultants Ltd,Water authority,Rika,True,2004,Gravity,Gravity,Gravity,VWC,UserGroup,PayAnnually,Annually,Soft,Good,Enough,Enough,River,RiverOrLake,Surface,CommunalStandpipe,CommunalStandpipe,Functional
12240,6,07/03/2013 00:00:00,Ces (gmbh),1272,DWE,37.48402722,-3.33390627,Kwa Fausta Msoma,0,Pangani,Kileuwo Kati,Kilimanjaro,3,4,Moshi Rural,Kurua Vunjo Mashariki,20,True,GeoData Consultants Ltd,Water Board,Kirua kahe gravity water supply trust,True,2008,Gravity,Gravity,Gravity,WaterBoard,UserGroup,PayPerBucket,PerBucket,Soft,Good,Enough,Enough,Spring,Spring,Groundwater,CommunalStandpipe,CommunalStandpipe,Functional
21939,300,02/24/2011 00:00:00,Adb,1366,DWE,35.08391965,-9.06812126,Kwa Nathani Ngembudzi,0,Rufiji,Igelecha,Iringa,11,4,Njombe,Ikuka,50,True,GeoData Consultants Ltd,VWC,Lima gravity water scheme,False,2008,Gravity,Gravity,Gravity,VWC,UserGroup,PayMonthly,Other,Soft,Good,Enough,Enough,River,RiverOrLake,Surface,CommunalStandpipe,CommunalStandpipe,Functional
66328,5000,03/04/2011 00:00:00,Danida,1659,DWE,34.50863446,-9.104129499999999,Ofisini,0,Rufiji,Uhamila,Iringa,11,4,Njombe,Imalinyi,53,True,GeoData Consultants Ltd,WUA,imalinyi water supply schem,True,1993,Gravity,Gravity,Gravity,WUA,UserGroup,PayAnnually,Annually,Soft,Good,Enough,Enough,River,RiverOrLake,Surface,CommunalStandpipe,CommunalStandpipe,Functional
11943,500,01/21/2013 00:00:00,Isf,978,DWE,29.73974144,-4.75043321,Nguvuzetu,0,LakeTanganyika,Kaseke,Kigoma,16,3,Kigoma Rural,Mahembe,130,True,GeoData Consultants Ltd,VWC,Mkongoro one,True,2005,Gravity,Gravity,Gravity,WUG,UserGroup,PayMonthly,Other,Soft,Good,Enough,Enough,River,RiverOrLake,Surface,CommunalStandpipe,CommunalStandpipe,Functional
73528,500,07/04/2011 00:00:00,Unicef,1691,DWE,34.63965484,-9.09479516,Kwa Teckson Mlyuka,0,Rufiji,Kihanga,Iringa,11,4,Njombe,Mdandu,65,True,GeoData Consultants Ltd,WUA,wanging'ombe water supply s,True,1978,Gravity,Gravity,Gravity,WUA,UserGroup,PayMonthly,Other,Soft,Good,Dry,Dry,River,RiverOrLake,Surface,CommunalStandpipe,CommunalStandpipe,NonFunctional
29078,600,01/28/2013 00:00:00,Tacare,821,DWE,29.74147879,-4.89765399,Ccm,0,LakeTanganyika,Kati,Kigoma,16,3,Kigoma Rural,Simbo,450,True,GeoData Consultants Ltd,WUG,Mkongoro Two,True,1992,Afridev,Afridev,Handpump,VWC,UserGroup,PayMonthly,Other,Soft,Good,Enough,Enough,MachineDbh,BoreHole,Groundwater,HandPump,HandPump,Functional
30010,50,03/22/2011 00:00:00,Private Individual,9,Da,38.935724799999996,-6.50357995,Mwamini,0,WamiRuvu,Mbuyuni,Pwani,6,1,Bagamoyo,Kiromo,100,True,GeoData Consultants Ltd,Company,Bagamoyo wate,True,2000,KSB,Submersible,Submersible,PrivateOperator,Commercial,PayPerBucket,PerBucket,Soft,Good,Enough,Enough,River,RiverOrLake,Surface,CommunalStandpipe,CommunalStandpipe,Functional
12696,500,04/15/2011 00:00:00,Rc Church,1865,ACRA,34.74641678,-9.18674363,Kwa Bedza,0,Rufiji,Ukamba,Iringa,11,4,Njombe,Mdandu,125,True,GeoData Consultants Ltd,WUA,mtwango water supply scheme,True,2009,Gravity,Gravity,Gravity,WUA,UserGroup,PayMonthly,Other,Soft,Good,Enough,Enough,Spring,Spring,Groundwater,CommunalStandpipe,CommunalStandpipe,Functional
17795,6,08/03/2013 00:00:00,Ces(gmbh),1323,DWE,37.45285793,-3.32680298,Kwa Michael Karia,0,Pangani,Yamu Kati,Kilimanjaro,3,4,Moshi Rural,Kirua Vunjo Kusini,20,True,GeoData Consultants Ltd,Water Board,Kirua kahe gravity water supply trust,True,2008,Gravity,Gravity,Gravity,WaterBoard,UserGroup,PayPerBucket,PerBucket,Soft,Good,Enough,Enough,Spring,Spring,Groundwater,CommunalStandpipe,CommunalStandpipe,Functional
31106,5000,04/18/2011 00:00:00,Rcchurch/cefa,1570,RCchurch/CEFA,35.14902481,-9.27215583,Shuleni,0,Rufiji,Iyembela B,Iringa,11,4,Njombe,Lupembe,350,True,GeoData Consultants Ltd,WUA,matembwe water supply schem,True,1975,Gravity,Gravity,Gravity,WUA,UserGroup,PayMonthly,Other,Soft,Good,Dry,Dry,River,RiverOrLake,Surface,CommunalStandpipe,CommunalStandpipe,NonFunctional
12811,6,05/03/2013 00:00:00,Ces(gmbh),1516,DWE,37.44599518,-3.30863281,Kwa Donisi Chaki,0,Pangani,Kochaki,Kilimanjaro,3,4,Moshi Rural,Kirua Vunjo Magharibi,25,True,GeoData Consultants Ltd,Water Board,Kirua kahe gravity water supply trust,True,2008,Gravity,Gravity,Gravity,WaterBoard,UserGroup,PayPerBucket,PerBucket,Soft,Good,Enough,Enough,Spring,Spring,Groundwater,CommunalStandpipe,CommunalStandpipe,Functional
66346,1000,03/02/2011 00:00:00,Danida,1649,DANID,35.60715615,-7.88382551,none,0,Rufiji,Isimila,Iringa,11,1,Iringa Rural,Mseke,1,True,GeoData Consultants Ltd,VWC,Meseke,True,1984,Gravity,Gravity,Gravity,VWC,UserGroup,PayMonthly,Other,Soft,Good,Enough,Enough,Spring,Spring,Groundwater,CommunalStandpipe,CommunalStandpipe,Functional
8241,200,01/18/2013 00:00:00,Dwe,1242,DWE,30.31669542,-4.31083334,Kwa Ernest,0,LakeTanganyika,Rusesa,Kigoma,16,2,Kasulu,Kitagata,580,True,GeoData Consultants Ltd,Water authority,Nyachenda,True,2003,Gravity,Gravity,Gravity,VWC,UserGroup,PayMonthly,Other,Soft,Good,Enough,Enough,Spring,Spring,Groundwater,CommunalStandpipe,CommunalStandpipe,Functional
59560,2800,03/01/2011 00:00:00,Government Of Tanzania,1564,Gover,35.86163091,-7.75522236,none,0,Rufiji,Kibaoni,Iringa,11,7,Kilolo,Irole,25,True,GeoData Consultants Ltd,VWC,lugalo,True,2001,Gravity,Gravity,Gravity,VWC,UserGroup,PayAnnually,Annually,Soft,Good,Enough,Enough,Spring,Spring,Groundwater,CommunalStandpipe,CommunalStandpipe,Functional
30401,200,04/19/2011 00:00:00,Rc Church/centr,1582,RC church/Central Gover,35.21092272,-9.21512588,Kwa Andreas Mgodela,0,Rufiji,Kalila,Iringa,11,4,Njombe,Lupembe,150,True,GeoData Consultants Ltd,VWC,isoliwaya water supply sche,True,1999,Other,Other,Other,VWC,UserGroup,PayMonthly,Other,Soft,Good,Enough,Enough,Spring,Spring,Groundwater,CommunalStandpipe,CommunalStandpipe,NeedsRepair
12538,750,02/18/2013 00:00:00,Anglican Church,1288,DWE,30.15535443,-4.48586006,Anglican Church,0,LakeTanganyika,Runyogoza,Kigoma,16,2,Kasulu,Kigondo,453,True,GeoData Consultants Ltd,Water authority,Chovora,True,2006,Gravity,Gravity,Gravity,VWC,UserGroup,PayMonthly,Other,Soft,Good,Enough,Enough,River,RiverOrLake,Surface,CommunalStandpipe,CommunalStandpipe,Functional
33153,550,09/02/2013 00:00:00,Danida,508,DANIDA,34.64623408,-11.06784472,Kwa Mzee Kalongilongi,0,LakeNyasa,Yungu,Ruvuma,10,3,Mbinga,Liuli,96,True,GeoData Consultants Ltd,VWC,DANIDA,True,1992,Gravity,Gravity,Gravity,VWC,UserGroup,PayMonthly,Other,Soft,Good,Dry,Dry,Spring,Spring,Groundwater,CommunalStandpipe,CommunalStandpipe,NonFunctional
19015,5,12/03/2013 00:00:00,Germany Republi,1062,CES,37.19990881,-3.2962047999999995,Kwa Ashrafu Lema,0,Pangani,Majengo,Kilimanjaro,3,5,Hai,Masama Mashariki,100,True,GeoData Consultants Ltd,Water Board,Uroki-Bomang'ombe water sup,True,1999,Gravity,Gravity,Gravity,WaterBoard,UserGroup,PayPerBucket,PerBucket,Soft,Good,Enough,Enough,Spring,Spring,Groundwater,CommunalStandpipe,CommunalStandpipe,Functional
26797,250,01/29/2013 00:00:00,Government Of Tanzania,1119,Government,29.97218364,-4.83554142,Kwa Hermas,0,LakeTanganyika,Murusunu,Kigoma,16,2,Kigoma Rural,Matendo,471,True,GeoData Consultants Ltd,Water authority,Kasangezi,True,1976,Gravity,Gravity,Gravity,WaterBoard,UserGroup,PayMonthly,Other,Soft,Good,Enough,Enough,River,RiverOrLake,Surface,CommunalStandpipe,CommunalStandpipe,Functional
7064,500,10/04/2011 00:00:00,Unicef,1598,DWE,34.61861962,-9.03245446,Kwa James Mlengule,0,Rufiji,Limteni,Iringa,11,4,Njombe,Usuka,75,True,GeoData Consultants Ltd,WUA,wanging'ombe water supply s,True,1978,Gravity,Gravity,Gravity,WUA,UserGroup,PayMonthly,Other,Soft,Good,Enough,Enough,River,RiverOrLake,Surface,CommunalStandpipe,CommunalStandpipe,Functional
61575,500,01/18/2013 00:00:00,Norad,1004,RWE,29.747064299999998,-4.74722615,Kwa Lazaro,0,LakeTanganyika,Mkwanga,Kigoma,16,3,Kigoma Rural,Mahembe,200,True,GeoData Consultants Ltd,VWC,Mkongoro One,True,1982,Gravity,Gravity,Gravity,VWC,UserGroup,PayMonthly,Other,Soft,Good,Enough,Enough,River,RiverOrLake,Surface,CommunalStandpipe,CommunalStandpipe,Functional
15627,200,02/28/2011 00:00:00,Unice,358,RWE,37.77086532,-7.08227342,Kwa Bibi Butwa,0,WamiRuvu,Mtamba Shule,Morogoro,5,2,Morogoro Rural,Kisemu,230,True,GeoData Consultants Ltd,VWC,Mkom,True,1983,Gravity,Gravity,Gravity,VWC,UserGroup,PayMonthly,Other,Soft,Good,Enough,Enough,River,RiverOrLake,Surface,CommunalStandpipe,CommunalStandpipe,Functional
9718,10,03/16/2011 00:00:00,Government Of Tanzania,174,Ce,38.3651164,-6.636669,Marunda,0,WamiRuvu,Kudipera,Pwani,6,1,Bagamoyo,Chalinze,50,True,GeoData Consultants Ltd,VWC,Mindutulieni,True,1972,KSB,Submersible,Submersible,VWC,UserGroup,PayPerBucket,PerBucket,Soft,Good,Enough,Enough,River,RiverOrLake,Surface,CommunalStandpipe,CommunalStandpipe,NonFunctional
28807,5,11/03/2013 00:00:00,Germany Republi,1137,CES,37.25099657,-3.26979923,Kwa Augustne Mlai,0,Pangani,Sereni,Kilimanjaro,3,5,Hai,Machame Mashariki,120,True,GeoData Consultants Ltd,Water Board,Lyamungo-Umbwe water supply,True,1999,Gravity,Gravity,Gravity,WaterBoard,UserGroup,PayPerBucket,PerBucket,Soft,Good,Enough,Enough,Spring,Spring,Groundwater,CommunalStandpipe,CommunalStandpipe,NonFunctional
13726,500,03/27/2011 00:00:00,Unicef,1469,DWE,34.71594721,-8.860222300000002,Kanisani,0,Rufiji,Ujindile Kati,Iringa,11,4,Njombe,Ilembula,360,True,GeoData Consultants Ltd,WUA,wanging'ombe supply scheme,True,1978,Gravity,Gravity,Gravity,WUA,UserGroup,PayMonthly,Other,Soft,Good,Dry,Dry,River,RiverOrLake,Surface,CommunalStandpipe,CommunalStandpipe,NonFunctional
28288,20,02/05/2013 00:00:00,Mission,1355,Mission,34.37609423,-5.76745171,Kwa Mingaa,0,Internal,Doroto,Singida,13,3,Manyoni,Itigi,1000,True,GeoData Consultants Ltd,VWC,Doroto water supply,False,1978,Windmill,WindPowered,WindPowered,VWC,UserGroup,PayPerBucket,PerBucket,Soft,Good,Enough,Enough,MachineDbh,BoreHole,Groundwater,CommunalStandpipe,CommunalStandpipe,Functional
64247,6,03/03/2013 00:00:00,Ces(gmbh),1603,DWE,37.45781477,-3.2980324999999997,Kwa Felisiana Malya,0,Pangani,Chakimalya,Kilimanjaro,3,4,Moshi Rural,Kirua Vunjo Magharibi,50,True,GeoData Consultants Ltd,Water Board,Kirua kahe gravity water supply trust,True,2008,Gravity,Gravity,Gravity,WaterBoard,UserGroup,PayPerBucket,PerBucket,Soft,Good,Enough,Enough,Spring,Spring,Groundwater,CommunalStandpipe,CommunalStandpipe,Functional
10418,500,01/16/2013 00:00:00,Community,1073,Community,29.70850769,-4.75242662,Kwa Gaudence Toi,0,LakeTanganyika,Mlega,Kigoma,16,3,Kigoma Rural,Mwandiga,88,True,GeoData Consultants Ltd,VWC,Mkongoro One,True,2012,Gravity,Gravity,Gravity,VWC,UserGroup,PayMonthly,Other,Soft,Good,Seasonal,Seasonal,River,RiverOrLake,Surface,CommunalStandpipe,CommunalStandpipe,Functional
5091,5000,03/04/2011 00:00:00,Danida,1687,DWE,34.50396987,-9.12207624,Kwa Mwinuka,0,Rufiji,Kihulunge,Iringa,11,4,Njombe,Imalinyi,59,True,GeoData Consultants Ltd,WUA,imalinyi water supply schem,True,1993,Gravity,Gravity,Gravity,WUA,UserGroup,PayAnnually,Annually,Soft,Good,Enough,Enough,River,RiverOrLake,Surface,CommunalStandpipe,CommunalStandpipe,Functional
41163,500,03/08/2011 00:00:00,Government Of Tanzania,1652,DWE,38.2580069,-4.4907631,Kwa Mzee Jambia,0,Pangani,Kilimani,Tanga,4,1,Lushoto,Mtae,1,True,GeoData Consultants Ltd,VWC,Shengui forest,True,2005,Gravity,Gravity,Gravity,VWC,UserGroup,PayMonthly,Other,Soft,Good,Enough,Enough,Spring,Spring,Groundwater,CommunalStandpipe,CommunalStandpipe,Functional
30658,2000,02/25/2011 00:00:00,Anglican Church,1836,Angli,35.93189022,-8.26490871,none,0,Rufiji,Mangelengele,Iringa,11,7,Kilolo,Boma la ng'ombe,40,True,GeoData Consultants Ltd,VWC,Idegen,True,2009,Gravity,Gravity,Gravity,VWC,UserGroup,PayAnnually,Annually,Soft,Good,Enough,Enough,Spring,Spring,Groundwater,CommunalStandpipe,CommunalStandpipe,Functional
69209,500,07/07/2011 00:00:00,European Union,1782,Accra,34.80846664,-9.04201581,Kwa Henry Kimtifu,0,Rufiji,Mtoninganga,Iringa,11,4,Njombe,Mtwango,250,True,GeoData Consultants Ltd,WUG,Mtwango water supplied sche,True,2010,Gravity,Gravity,Gravity,WUG,UserGroup,PayMonthly,Other,Soft,Good,Enough,Enough,Spring,Spring,Groundwater,CommunalStandpipe,CommunalStandpipe,Functional
62624,500,03/07/2011 00:00:00,Government Of Tanzania,874,DWE,36.68429515,-8.97153755,Kituo Cha Kandenga,0,Rufiji,Kibosho,Morogoro,5,4,Ulanga,Sali,210,True,GeoData Consultants Ltd,Water Board,Sali Wat,True,1980,Gravity,Gravity,Gravity,WUA,UserGroup,PayMonthly,Other,Soft,Good,Enough,Enough,River,RiverOrLake,Surface,CommunalStandpipe,CommunalStandpipe,Functional
7501,6000,03/06/2011 00:00:00,Danida,1377,DANID,35.48480624,-7.70025774,none,0,Rufiji,Chemchem,Iringa,11,1,Iringa Rural,Nzihi,1,True,GeoData Consultants Ltd,VWC,Nzihi,True,1994,Gravity,Gravity,Gravity,VWC,UserGroup,PayAnnually,Annually,Soft,Good,Dry,Dry,Spring,Spring,Groundwater,CommunalStandpipe,CommunalStandpipe,NonFunctional
56042,500,07/04/2011 00:00:00,Unicef,1721,DWE,34.66613465,-9.09998763,Kwa Jafari Mtigo,0,Rufiji,Salimwani,Iringa,11,4,Njombe,Mdandu,45,True,GeoData Consultants Ltd,WUA,wanging'ombe water supply s,True,1978,Gravity,Gravity,Gravity,WUA,UserGroup,PayMonthly,Other,Soft,Good,Seasonal,Seasonal,River,RiverOrLake,Surface,CommunalStandpipe,CommunalStandpipe,Functional
57501,7,11/03/2013 00:00:00,Germany Republi,1263,CES,37.21983036,-3.23758308,Kwa Lingishi Songoya,0,Pangani,Kisiki,Kilimanjaro,3,5,Hai,Machame Kaskazini,5,True,GeoData Consultants Ltd,Water Board,Machame water supply,True,2008,Gravity,Gravity,Gravity,WaterBoard,UserGroup,PayPerBucket,PerBucket,Soft,Good,Enough,Enough,Spring,Spring,Groundwater,CommunalStandpipe,CommunalStandpipe,Functional
64705,20,03/22/2011 00:00:00,Danida,-7,DA,38.92006887,-6.48693365,Mto Wa Nyanza,0,WamiRuvu,Mto Wa Nyanza,Pwani,6,1,Bagamoyo,Magomeni,80,True,GeoData Consultants Ltd,Company,Bagamoyo wate,True,1993,KSB,Submersible,Submersible,PrivateOperator,Commercial,PayPerBucket,PerBucket,Soft,Good,Enough,Enough,River,RiverOrLake,Surface,CommunalStandpipe,CommunalStandpipe,NonFunctional
300,500,09/02/2013 00:00:00,Private,508,Private,34.6507117,-11.06439666,Dr. Ndimbo,0,LakeNyasa,Yungu,Ruvuma,10,3,Mbinga,Liuli,90,False,GeoData Consultants Ltd,VWC,DANIDA,True,2012,Gravity,Gravity,Gravity,Parastatal,Parastatal,PayMonthly,Other,Soft,Good,Enough,Enough,Spring,Spring,Groundwater,CommunalStandpipe,CommunalStandpipe,Functional
4004,1000,02/21/2011 00:00:00,Idc,1767,DWE,35.47185379,-8.0500587,none,0,Rufiji,Kibaoni A,Iringa,11,1,Iringa Rural,Lumuli,700,True,GeoData Consultants Ltd,VWC,Ifunda,True,2009,Gravity,Gravity,Gravity,VWC,UserGroup,PayMonthly,Other,Soft,Good,Enough,Enough,Spring,Spring,Groundwater,CommunalStandpipe,CommunalStandpipe,Functional
54979,10,04/03/2013 00:00:00,Giz,842,KILI WATER,37.46667761,-3.37939655,Kwa Andrea Kolie,0,Pangani,Tela Juu,Kilimanjaro,3,4,Moshi Rural,Kirua Vunjo Kusini,40,True,GeoData Consultants Ltd,WUA,Uchira water users association,True,2001,Gravity,Gravity,Gravity,WUA,UserGroup,PayPerBucket,PerBucket,Soft,Good,Enough,Enough,Spring,Spring,Groundwater,CommunalStandpipe,CommunalStandpipe,Functional
4837,2000,03/09/2011 00:00:00,Danida,939,DANID,35.09674049,-7.83379125,none,0,Rufiji,Kinyari,Iringa,11,1,Iringa Rural,Idodi,1,True,GeoData Consultants Ltd,VWC,Idodi,True,1992,Gravity,Gravity,Gravity,VWC,UserGroup,PayAnnually,Annually,Soft,Good,Enough,Enough,Spring,Spring,Groundwater,CommunalStandpipe,CommunalStandpipe,Functional
13818,500,07/04/2011 00:00:00,Unicef,1819,DWE,34.70843752,-9.14945886,Kwa Festo Nyamle,0,Rufiji,Ngelele,Iringa,11,4,Njombe,Mdandu,85,True,GeoData Consultants Ltd,WUA,wanging'ombe water supply s,True,1978,Gravity,Gravity,Gravity,WUA,UserGroup,PayMonthly,Other,Soft,Good,Enough,Enough,River,RiverOrLake,Surface,CommunalStandpipe,CommunalStandpipe,Functional
69530,50,02/28/2011 00:00:00,Private Individual,251,Wa,38.38646639,-6.33503112,Hassan,0,WamiRuvu,Kisanga,Pwani,6,1,Bagamoyo,Msata,10,False,GeoData Consultants Ltd,WUA,Chalinze wate,True,2010,KSB,Submersible,Submersible,WUA,UserGroup,PayPerBucket,PerBucket,Soft,Good,Enough,Enough,River,RiverOrLake,Surface,CommunalStandpipe,CommunalStandpipe,Functional
23382,50,03/30/2011 00:00:00,District Council,502,Handeni Trunk Main(,38.14133279,-5.545864,Kwa Yusuph Gango,6,Pangani,Chang'Ombe,Tanga,4,6,Handeni,Kwaluguru,500,True,GeoData Consultants Ltd,VWC,Handeni Trunk Main(H,True,1991,Submersible,Submersible,Submersible,VWC,UserGroup,PayPerBucket,PerBucket,Soft,Good,Enough,Enough,River,RiverOrLake,Surface,CommunalStandpipe,CommunalStandpipe,Functional
70653,10,06/03/2013 00:00:00,Germany Republi,1126,CES,37.17697695,-3.2698992000000002,Area 17 Namba 37,0,Pangani,Isawero,Kilimanjaro,3,5,Hai,Masama Mashariki,75,True,GeoData Consultants Ltd,Water Board,Losaa-Kia water supply,True,1999,Gravity,Gravity,Gravity,WaterBoard,UserGroup,PayPerBucket,PerBucket,Soft,Good,Enough,Enough,Spring,Spring,Groundwater,CommunalStandpipe,CommunalStandpipe,Functional
63564,1000,03/21/2011 00:00:00,Sabemo,1784,Chamavita,38.34124244,-4.7227717,Kidanni,6,Pangani,Tabwa,Tanga,4,1,Lushoto,Kwai,1,True,GeoData Consultants Ltd,VWC,Mangamba forest,True,1989,Gravity,Gravity,Gravity,VWC,UserGroup,PayMonthly,Other,Soft,Good,Enough,Enough,Spring,Spring,Groundwater,CommunalStandpipe,CommunalStandpipe,Functional
57553,10,06/03/2013 00:00:00,Germany Republi,1703,CES,37.14840957,-3.18193501,Area 10 Namba 1,0,Pangani,Urereni,Kilimanjaro,3,5,Hai,Masama Magharibi,35,True,GeoData Consultants Ltd,Water Board,Losaa-Kia water supply,True,1999,Gravity,Gravity,Gravity,WaterBoard,UserGroup,PayPerBucket,PerBucket,Soft,Good,Enough,Enough,Spring,Spring,Groundwater,CommunalStandpipe,CommunalStandpipe,Functional
2508,25,01/17/2013 00:00:00,Government Of Tanzania,259,District Council,39.32700758,-9.951662400000002,Kwa Kaunde,0,RuvumaSouthernCoast,Kanisani A,Lindi,80,23,Lindi Rural,Milola,83,False,GeoData Consultants Ltd,WUA,Milola Water Scheme,False,1983,Gravity,Gravity,Gravity,WUA,UserGroup,PayPerBucket,PerBucket,Soft,Good,Enough,Enough,River,RiverOrLake,Surface,CommunalStandpipe,CommunalStandpipe,NeedsRepair
63140,30,03/21/2011 00:00:00,Government Of Tanzania,380,Mombo urban water s,38.28279243,-4.88686414,Kioski,0,Pangani,Jitengeni B,Tanga,4,2,Korogwe,Mombo,350,True,GeoData Consultants Ltd,VWC,Mombo water supply,False,2007,Gravity,Gravity,Gravity,VWC,UserGroup,PayPerBucket,PerBucket,Soft,Good,Enough,Enough,Spring,Spring,Groundwater,CommunalStandpipe,CommunalStandpipe,Functional
16712,5,12/03/2013 00:00:00,Germany Republi,1026,CES,37.15769898,-3.28189717,Kwa Ismail Reso,0,Pangani,Mborolo,Kilimanjaro,3,5,Hai,Masama Kusini,75,True,GeoData Consultants Ltd,Water Board,Uroki-Bomang'ombe water sup,True,1999,Gravity,Gravity,Gravity,WaterBoard,UserGroup,PayPerBucket,PerBucket,Soft,Good,Enough,Enough,Spring,Spring,Groundwater,CommunalStandpipe,CommunalStandpipe,Functional
27616,500,01/03/2011 00:00:00,Government Of Tanzania,1670,DWE,34.90283126,-8.96381474,Kwa Heri Mfugare,0,Rufiji,Igongolo Magha,Iringa,11,4,Njombe,Igongolo,1,True,GeoData Consultants Ltd,VWC,Igongolo gravity water sche,False,1973,Gravity,Gravity,Gravity,VWC,UserGroup,PayMonthly,Other,Soft,Good,Enough,Enough,Spring,Spring,Groundwater,CommunalStandpipe,CommunalStandpipe,Functional
72859,33,03/13/2013 00:00:00,Ces(gmbh),748,DWE,37.38016806,-3.42379732,Kwa Subira Issa,0,Pangani,Msufini,Kilimanjaro,3,4,Moshi Rural,Kahe,150,True,GeoData Consultants Ltd,Water Board,Kirua kahe pumping water trust,True,2008,Submersible,Submersible,Submersible,WaterBoard,UserGroup,PayPerBucket,PerBucket,Soft,Good,Enough,Enough,MachineDbh,BoreHole,Groundwater,CommunalStandpipe,CommunalStandpipe,Functional
36181,50,03/25/2011 00:00:00,Private Individual,-15,Da,38.9964009,-6.47995361,Mzee Machano,0,WamiRuvu,Kwa Faki,Pwani,6,1,Bagamoyo,Zinga/Ikerege,30,True,GeoData Consultants Ltd,Company,Bagamoyo wate,True,2010,KSB,Submersible,Submersible,PrivateOperator,Commercial,PayPerBucket,PerBucket,Soft,Good,Enough,Enough,River,RiverOrLake,Surface,CommunalStandpipe,CommunalStandpipe,Functional
28526,100,03/18/2011 00:00:00,St,737,St,36.82065297,-7.36602253,Kwa Cosmas,0,Rufiji,Kiikonga,Morogoro,5,1,Kilosa,Kisanga,180,True,GeoData Consultants Ltd,VWC,Ki,True,2010,Gravity,Gravity,Gravity,VWC,UserGroup,PayMonthly,Other,Soft,Good,Enough,Enough,River,RiverOrLake,Surface,CommunalStandpipe,CommunalStandpipe,Functional
15199,7,11/03/2013 00:00:00,Germany Republi,1270,CES,37.22583108,-3.23270119,Kwa Justine Masawe,0,Pangani,Ikola,Kilimanjaro,3,5,Hai,Machame Kaskazini,1,True,GeoData Consultants Ltd,Water Board,Machame water supply,True,2008,Gravity,Gravity,Gravity,WaterBoard,UserGroup,PayPerBucket,PerBucket,Soft,Good,Enough,Enough,Spring,Spring,Groundwater,CommunalStandpipe,CommunalStandpipe,NonFunctional
39730,3600,04/04/2011 00:00:00,Government Of Tanzania,1983,DWE,34.4764059,-9.16926448,Shuleni,0,Rufiji,Lutowelo,Iringa,11,3,Njombe,Wangama,450,True,GeoData Consultants Ltd,VWC,wangama water supply scheme,True,1975,Gravity,Gravity,Gravity,VWC,UserGroup,PayAnnually,Annually,Soft,Good,Dry,Dry,Spring,Spring,Groundwater,CommunalStandpipe,CommunalStandpipe,NonFunctional
72755,100,02/19/2011 00:00:00,Government Of Tanzania,1900,Gover,35.89836062,-8.10785921,none,0,Rufiji,Makanyagio,Iringa,11,7,Kilolo,Dabaga,500,True,GeoData Consultants Ltd,VWC,Kidaba,True,1975,Gravity,Gravity,Gravity,VWC,UserGroup,PayPerBucket,PerBucket,Soft,Good,Enough,Enough,River,RiverOrLake,Surface,CommunalStandpipe,CommunalStandpipe,NonFunctional
24391,200,07/03/2013 00:00:00,Unicef,865,Government,34.914523700000004,-10.53635154,Kwa Mzee Materusi,0,LakeNyasa,Ccb,Ruvuma,10,3,Mbinga,Ruanda,60,True,GeoData Consultants Ltd,VWC,Government,True,2002,Gravity,Gravity,Gravity,VWC,UserGroup,PayMonthly,Other,Soft,Good,Enough,Enough,Spring,Spring,Groundwater,CommunalStandpipe,CommunalStandpipe,Functional
1310,2200,02/28/2011 00:00:00,Shipo,1742,SHIPO,34.82128128,-9.66881727,none,0,LakeNyasa,Lufingo,Iringa,11,4,Njombe,Luponde,20,True,GeoData Consultants Ltd,WUA,Luholo,True,2005,Gravity,Gravity,Gravity,WUA,UserGroup,PayAnnually,Annually,Soft,Good,Enough,Enough,Spring,Spring,Groundwater,CommunalStandpipe,CommunalStandpipe,Functional
50157,1000,02/03/2013 00:00:00,Mission,1011,DWE,35.2716469,-10.51774414,Kwa Mzee Njati,0,RuvumaSouthernCoast,Mbuni,Ruvuma,10,2,Songea Rural,Kilagano,1500,True,GeoData Consultants Ltd,VWC,Mradi wa maji wa kilagano,True,2011,Gravity,Gravity,Gravity,VWC,UserGroup,PayMonthly,Other,Soft,Good,Enough,Enough,River,RiverOrLake,Surface,CommunalStandpipe,CommunalStandpipe,Functional
56187,500,03/09/2011 00:00:00,Ga,1336,Ga,36.87009799,-6.23300409,Kwa Njeni,0,WamiRuvu,Mkokani,Morogoro,5,1,Kilosa,Rubeho,250,True,GeoData Consultants Ltd,VWC,Kw,True,2000,Gravity,Gravity,Gravity,VWC,UserGroup,PayMonthly,Other,Soft,Good,Enough,Enough,Spring,Spring,Groundwater,CommunalStandpipe,CommunalStandpipe,NeedsRepair
40321,30,02/06/2013 00:00:00,Finida German Tanzania Govt,436,Finwater,39.41918073,-10.69572915,Kwa Mzee Fulaha,0,RuvumaSouthernCoast,Mkungulu,Mtwara,90,33,Newala,Mpotwa,230,True,GeoData Consultants Ltd,VWC,Mitema,False,1988,Submersible,Submersible,Submersible,VWC,UserGroup,PayPerBucket,PerBucket,Soft,Good,Enough,Enough,MachineDbh,BoreHole,Groundwater,CommunalStandpipe,CommunalStandpipe,NeedsRepair
68663,200,03/22/2013 00:00:00,Kkkt Church,637,KKKT CHURCH,37.91038361,-4.50104315,Kilimani,0,Pangani,Mbuyuni B,Kilimanjaro,3,3,Same,Hedaru,250,True,GeoData Consultants Ltd,VWC,Hedaru kati water supply,True,2010,Gravity,Gravity,Gravity,WaterAuthority,Commercial,PayAnnually,Annually,Soft,Good,Enough,Enough,Spring,Spring,Groundwater,CommunalStandpipe,CommunalStandpipe,Functional
63736,2500,03/31/2011 00:00:00,Government Of Tanzania,1259,DWE,38.34818981,-4.849285500000001,Kwa Mzee Abedi Singano,0,Pangani,Macho Ya Wagen,Tanga,4,1,Lushoto,Mbuzii,1,True,GeoData Consultants Ltd,VWC,Mkuzu forest,True,1969,Gravity,Gravity,Gravity,VWC,UserGroup,PayMonthly,Other,Soft,Good,Enough,Enough,Spring,Spring,Groundwater,CommunalStandpipe,CommunalStandpipe,NonFunctional
29700,10,09/03/2013 00:00:00,Giz,812,KILI WATER,37.47430329,-3.38877216,Kwa Mipale,0,Pangani,Kati Juu,Kilimanjaro,3,4,Moshi Rural,Kirua Vunjo Kusini,5,True,GeoData Consultants Ltd,WUA,Uchira water users association,True,2001,Gravity,Gravity,Gravity,WUA,UserGroup,PayPerBucket,PerBucket,Soft,Good,Enough,Enough,Spring,Spring,Groundwater,CommunalStandpipe,CommunalStandpipe,Functional
44049,500,01/18/2013 00:00:00,Tcrs,1284,TCRS,30.48071678,-5.61187907,Headquarters,0,LakeTanganyika,Headquarters,Rukwa,15,1,Mpanda,Mishamo,100,True,GeoData Consultants Ltd,VWC,Kashutakasimba,True,1984,IndiaMarkII,IndiaMarkII,Handpump,VWC,UserGroup,PayMonthly,Other,Salty,Salty,Enough,Enough,MachineDbh,BoreHole,Groundwater,HandPump,HandPump,Functional
8446,25,12/03/2013 00:00:00,Ces(gmbh),700,DWE,37.33491893,-3.59449034,Mbeya Ndogo,0,Pangani,Samanga,Kilimanjaro,3,4,Moshi Rural,Arusha Chini,130,True,GeoData Consultants Ltd,Water Board,Kirua kahe pumping water trust,True,2008,Submersible,Submersible,Submersible,WaterBoard,UserGroup,PayPerBucket,PerBucket,Soft,Good,Enough,Enough,MachineDbh,BoreHole,Groundwater,CommunalStandpipe,CommunalStandpipe,Functional
30802,500,02/28/2011 00:00:00,Acra,2032,ACRA,34.69014712,-9.32292973,none,0,Rufiji,Mgodechi,Iringa,11,4,Njombe,Njombe Urban,200,True,GeoData Consultants Ltd,VWC,Tove,True,2003,Gravity,Gravity,Gravity,VWC,UserGroup,PayMonthly,Other,Soft,Good,Enough,Enough,River,RiverOrLake,Surface,CommunalStandpipe,CommunalStandpipe,Functional
65205,2500,04/01/2011 00:00:00,Government Of Tanzania,1260,DWE,38.33459038,-4.8569792000000005,Kwa Mzee Saidi Singano,0,Pangani,Kishului,Tanga,4,1,Lushoto,Mbuzii,1,True,GeoData Consultants Ltd,VWC,Mkuzu forest,True,1972,Gravity,Gravity,Gravity,VWC,UserGroup,PayMonthly,Other,Soft,Good,Enough,Enough,Spring,Spring,Groundwater,CommunalStandpipe,CommunalStandpipe,NonFunctional
40659,10,03/22/2013 00:00:00,Miziriol,1536,Miziriol,35.61261793,-3.58352399,Kwa Zakaria,0,Internal,D/Mashariki,Arusha,24,30,Karatu,Endabash,400,True,GeoData Consultants Ltd,VWC,Endawasu,True,1994,Gravity,Gravity,Gravity,VWC,UserGroup,PayPerBucket,PerBucket,Soft,Good,Seasonal,Seasonal,River,RiverOrLake,Surface,CommunalStandpipe,CommunalStandpipe,Functional
10524,5,03/28/2013 00:00:00,Ces (gmbh),1548,DWE,37.27504792,-3.2014801,Kwa Focus Sadala,0,Pangani,Mkotira,Kilimanjaro,3,4,Moshi Rural,Kibosho Magharibi,30,True,GeoData Consultants Ltd,Water Board,Lyamungo umbwe water supply,True,2007,Gravity,Gravity,Gravity,WaterBoard,UserGroup,PayPerBucket,PerBucket,Soft,Good,Enough,Enough,River,RiverOrLake,Surface,CommunalStandpipe,CommunalStandpipe,Functional
21481,6500,02/14/2013 00:00:00,Dmdd,1969,Dmdd,35.37140049,-4.47080188,Mathias,0,Internal,Rabai,Manyara,21,2,Hanang,Mogitu,162,True,GeoData Consultants Ltd,VWC,Gamowaso,True,2003,Gravity,Gravity,Gravity,VWC,UserGroup,PayAnnually,Annually,Soft,Good,Enough,Enough,Spring,Spring,Groundwater,CommunalStandpipe,CommunalStandpipe,Functional
30787,30,05/03/2013 00:00:00,European Union,469,European Union,38.068943700000005,-4.57566295,Kwa Daudi,0,Pangani,Majengo,Kilimanjaro,3,3,Same,Bendera,140,True,GeoData Consultants Ltd,Water authority,Zepalama,True,2011,Submersible,Submersible,Submersible,VWC,UserGroup,PayPerBucket,PerBucket,Soft,Good,Enough,Enough,MachineDbh,BoreHole,Groundwater,CommunalStandpipe,CommunalStandpipe,NonFunctional
57049,50,03/13/2011 00:00:00,Private Individual,176,WU,38.34054329999999,-6.63431058,Mbaga,0,WamiRuvu,Nmc,Pwani,6,1,Bagamoyo,Chalinze,15,False,GeoData Consultants Ltd,WUA,Chalinze wate,True,2010,KSB,Submersible,Submersible,PrivateOperator,Commercial,PayPerBucket,PerBucket,Soft,Good,Enough,Enough,River,RiverOrLake,Surface,CommunalStandpipe,CommunalStandpipe,Functional
7677,200,01/17/2013 00:00:00,Isf/tacare,1019,ISF/TACARE,29.673914500000002,-4.72308668,Nyerere,0,LakeTanganyika,Kilundo,Kigoma,16,3,Kigoma Rural,Mwamgongo,185,True,GeoData Consultants Ltd,WUG,Chankele/Bubango water project,True,2006,Gravity,Gravity,Gravity,VWC,UserGroup,PayMonthly,Other,Soft,Good,Enough,Enough,River,RiverOrLake,Surface,CommunalStandpipe,CommunalStandpipe,NonFunctional
47226,500,05/03/2013 00:00:00,Government Of Tanzania,487,Government,38.07760067,-4.47860366,Kwa Kitua,0,Pangani,Jitengeni B,Kilimanjaro,3,3,Same,Kihurio,120,True,GeoData Consultants Ltd,Water authority,Sasani,True,1967,Gravity,Gravity,Gravity,VWC,UserGroup,PayWhenSchemeFails,OnFailure,Soft,Good,Enough,Enough,River,RiverOrLake,Surface,CommunalStandpipe,CommunalStandpipe,NonFunctional
42012,25,10/03/2013 00:00:00,Ces(gmbh),699,DWE,37.44074095,-3.49157093,Kwa Mashambo,0,Pangani,Stesheni,Kilimanjaro,3,4,Moshi Rural,Kahe,65,True,GeoData Consultants Ltd,Water Board,Kirua kahe pumping water trust,True,2008,Submersible,Submersible,Submersible,WaterBoard,UserGroup,PayPerBucket,PerBucket,Soft,Good,Enough,Enough,MachineDbh,BoreHole,Groundwater,CommunalStandpipe,CommunalStandpipe,Functional
61095,50,02/19/2013 00:00:00,Dwe,1162,DWE,36.64590196,-3.73827272,Shule Ya Msingi,0,Pangani,Madukani,Manyara,21,4,Simanjiro,Oljoro,300,True,GeoData Consultants Ltd,VWC,Oljoro Namba 5 pipe scheme,True,1980,Submersible,Submersible,Submersible,VWC,UserGroup,PayPerBucket,PerBucket,Soft,Good,Enough,Enough,MachineDbh,BoreHole,Groundwater,CommunalStandpipe,CommunalStandpipe,NonFunctional
14744,5,03/03/2013 00:00:00,Ces (gmbh),1212,DWE,37.28424953,-3.2564328,Kwa August Mwanga,0,Pangani,Kimala,Kilimanjaro,3,4,Moshi Rural,Kindi,25,True,GeoData Consultants Ltd,Water Board,Lyamungo umbwe water supply,True,2007,Gravity,Gravity,Gravity,WaterBoard,UserGroup,PayPerBucket,PerBucket,Soft,Good,Enough,Enough,River,RiverOrLake,Surface,CommunalStandpipe,CommunalStandpipe,Functional
3820,25,03/13/2013 00:00:00,Ces(gmbh),718,DWE,37.532411100000004,-3.45694146,Kwa Mzee Hassani,0,Pangani,Ghona Mjini,Kilimanjaro,3,4,Moshi Rural,Kahe Mashariki,75,True,GeoData Consultants Ltd,Water Board,Kirua kahe pumping water trust,True,2008,Submersible,Submersible,Submersible,WaterBoard,UserGroup,PayPerBucket,PerBucket,Soft,Good,Enough,Enough,MachineDbh,BoreHole,Groundwater,CommunalStandpipe,CommunalStandpipe,Functional
56096,500,02/27/2013 00:00:00,Danida,906,DANIDA,35.98882173,-10.69730044,Kwa Banda,0,RuvumaSouthernCoast,Mwema,Ruvuma,10,5,Namtumbo,Mkongo,150,True,GeoData Consultants Ltd,VWC,Njalamatata water gravity scheme,True,1983,Gravity,Gravity,Gravity,VWC,UserGroup,PayMonthly,Other,Soft,Good,Seasonal,Seasonal,River,RiverOrLake,Surface,CommunalStandpipe,CommunalStandpipe,NeedsRepair
61308,500,07/07/2011 00:00:00,European Union,1781,Accra,34.81309445,-9.03732515,Kwa Mama Nzota,0,Rufiji,Lunguya,Iringa,11,4,Njombe,Mtwango,130,True,GeoData Consultants Ltd,WUG,Mtwango water supplied sche,True,2011,Gravity,Gravity,Gravity,WUG,UserGroup,PayMonthly,Other,Soft,Good,Enough,Enough,Spring,Spring,Groundwater,CommunalStandpipe,CommunalStandpipe,Functional
16670,2200,02/25/2011 00:00:00,Idc,1735,DWE,35.38943793,-7.97214417,none,0,Rufiji,Siyovelwa,Iringa,11,1,Iringa Rural,Maboga,420,True,GeoData Consultants Ltd,VWC,Maboga,True,2004,Gravity,Gravity,Gravity,VWC,UserGroup,PayAnnually,Annually,Soft,Good,Enough,Enough,Spring,Spring,Groundwater,CommunalStandpipe,CommunalStandpipe,Functional
60828,500,03/30/2011 00:00:00,Unicef,1424,DWE,34.63112558,-8.87922698,Kwa Mzee Mkongwi,0,Rufiji,Itandula B,Iringa,11,4,Njombe,Wanging'ombe,45,True,GeoData Consultants Ltd,WUA,wanging'ombe supply scheme,True,1978,Gravity,Gravity,Gravity,WUA,UserGroup,PayMonthly,Other,Soft,Good,Enough,Enough,River,RiverOrLake,Surface,CommunalStandpipe,CommunalStandpipe,Functional
67988,5,03/29/2013 00:00:00,Ces (gmbh),1361,DWE,37.27437598,-3.22828989,Kwa Hugo Isack,0,Pangani,Telengo,Kilimanjaro,3,4,Moshi Rural,Kibosho Magharibi,25,True,GeoData Consultants Ltd,Water Board,Lyamungo umbwe water supply,True,2007,Gravity,Gravity,Gravity,WaterBoard,UserGroup,PayPerBucket,PerBucket,Soft,Good,Enough,Enough,River,RiverOrLake,Surface,CommunalStandpipe,CommunalStandpipe,Functional
43216,50,03/22/2011 00:00:00,Private Individual,-3,Da,38.92806063,-6.51192148,Ubaya Mungutu,0,WamiRuvu,Kitonga,Pwani,6,1,Bagamoyo,Kiromo,70,True,GeoData Consultants Ltd,Company,Bagamoyo wate,True,1994,KSB,Submersible,Submersible,PrivateOperator,Commercial,PayPerBucket,PerBucket,Soft,Good,Enough,Enough,River,RiverOrLake,Surface,CommunalStandpipe,CommunalStandpipe,Functional
45334,6,07/03/2013 00:00:00,Ces (gmbh),1082,DWE,37.50718428,-3.34145733,Kwa Lonila Kilawe,0,Pangani,Nganjoni Juu,Kilimanjaro,3,4,Moshi Rural,Kurua Vunjo Mashariki,20,True,GeoData Consultants Ltd,Water Board,Kirua kahe gravity water supply trust,True,2008,Gravity,Gravity,Gravity,WaterBoard,UserGroup,PayPerBucket,PerBucket,Soft,Good,Enough,Enough,Spring,Spring,Groundwater,CommunalStandpipe,CommunalStandpipe,Functional
68671,20,03/23/2013 00:00:00,Magadini-makiwaru Water,1252,Magadini-Makiwaru wa,37.00346776,-3.24422583,Kwa Eliamini Jackson,0,Pangani,Tindigani,Kilimanjaro,3,7,Siha,Siha Kati,1,True,GeoData Consultants Ltd,Water Board,BL Tindigani,True,2001,Gravity,Gravity,Gravity,WaterBoard,UserGroup,PayMonthly,Other,Soft,Good,Enough,Enough,Spring,Spring,Groundwater,CommunalStandpipe,CommunalStandpipe,Functional
51380,20,02/22/2013 00:00:00,Jica,1605,Jica,35.54880816,-4.28722672,Mk 1,0,Internal,Tipiri,Manyara,21,2,Hanang,Masakta,256,True,GeoData Consultants Ltd,VWC,Malama,True,2003,Submersible,Submersible,Submersible,VWC,UserGroup,PayPerBucket,PerBucket,Soft,Good,Enough,Enough,RainwaterHarvesting,RainwaterHarvesting,Surface,CommunalStandpipe,CommunalStandpipe,NonFunctional
37627,500,03/22/2011 00:00:00,Unicef,1493,DWE,34.71421242,-8.87980723,Kwa Lunyiriko Mjujulu,0,Rufiji,Nyanyango,Iringa,11,4,Njombe,Ilembula,120,True,GeoData Consultants Ltd,VWC,Wangingombe gravity Scheme,False,1984,Gravity,Gravity,Gravity,VWC,UserGroup,PayMonthly,Other,Soft,Good,Enough,Enough,River,RiverOrLake,Surface,CommunalStandpipe,CommunalStandpipe,Functional
27536,1500,03/03/2011 00:00:00,Fathe,1966,Fathe,34.82223172,-9.55616119,none,0,LakeNyasa,Idagadaga,Iringa,11,4,Njombe,Uwemba,5,True,GeoData Consultants Ltd,VWC,Mwande,False,2006,Gravity,Gravity,Gravity,VWC,UserGroup,PayAnnually,Annually,Soft,Good,Enough,Enough,Spring,Spring,Groundwater,CommunalStandpipe,CommunalStandpipe,Functional
40265,3600,04/04/2011 00:00:00,Wananchi,1923,wananchi,34.48606352,-9.16867607,Kwa Nick Kofiwa,0,Rufiji,Utunidza,Iringa,11,3,Njombe,Wangama,50,True,GeoData Consultants Ltd,VWC,wangama water supply scheme,True,2007,Gravity,Gravity,Gravity,VWC,UserGroup,PayAnnually,Annually,Soft,Good,Enough,Enough,Spring,Spring,Groundwater,CommunalStandpipe,CommunalStandpipe,Functional
17511,200,01/18/2013 00:00:00,Dwe,1232,DWE,30.33203353,-4.3089205,Kwa Bungwa,0,LakeTanganyika,Nyakerera,Kigoma,16,2,Kasulu,Kitagata,500,True,GeoData Consultants Ltd,Water authority,Nyachenda,True,2003,Gravity,Gravity,Gravity,VWC,UserGroup,PayMonthly,Other,Soft,Good,Enough,Enough,Spring,Spring,Groundwater,CommunalStandpipe,CommunalStandpipe,Functional
16643,20,02/28/2011 00:00:00,Water User As,241,Wa,38.35441457,-6.37839414,Idd Rashid,0,WamiRuvu,Kibonkho,Pwani,6,1,Bagamoyo,Msata,30,True,GeoData Consultants Ltd,WUA,Chalinze wate,True,2003,KSB,Submersible,Submersible,WUA,UserGroup,PayPerBucket,PerBucket,Soft,Good,Enough,Enough,River,RiverOrLake,Surface,CommunalStandpipe,CommunalStandpipe,NonFunctional
12404,500,01/03/2011 00:00:00,Tz Japan,1666,Villages,34.9152699,-8.97079951,Kwa Jorodan Kilowoko,0,Rufiji,Igongolo Kati,Iringa,11,4,Njombe,Igongolo,80,True,GeoData Consultants Ltd,VWC,Igongolo gravity water sche,False,2006,Gravity,Gravity,Gravity,VWC,UserGroup,PayMonthly,Other,Soft,Good,Enough,Enough,Spring,Spring,Groundwater,CommunalStandpipe,CommunalStandpipe,Functional
7065,10,01/15/2013 00:00:00,Kuwasa,845,KUWASA,29.68274756,-4.91124288,Kwa Hassani Malizuko,0,LakeTanganyika,Sihesabu,Kigoma,16,4,Kigoma Urban,Majengo,1530,False,GeoData Consultants Ltd,Other,Mradi wa maji wa kasimbu,True,1970,Other,Other,Other,Other,Other,PayPerBucket,PerBucket,Soft,Good,Seasonal,Seasonal,Lake,RiverOrLake,Surface,CommunalStandpipe,CommunalStandpipe,Functional
54271,30,02/23/2011 00:00:00,Jaica,51,JAICA,39.32198375,-7.03353479,Mwajasi,0,WamiRuvu,Mwajasi,Pwani,60,43,Mkuranga,Vikindu,1,True,GeoData Consultants Ltd,VWC,Vianzi Water Supply,False,2010,Submersible,Submersible,Submersible,VWC,UserGroup,PayPerBucket,PerBucket,Soft,Good,Enough,Enough,MachineDbh,BoreHole,Groundwater,CommunalStandpipe,CommunalStandpipe,Functional
51203,200,03/10/2011 00:00:00,Government Of Tanzania,1761,DWE,38.22146928,-4.5596991,Kwa Mzee Salehe,0,Pangani,Pakoi,Tanga,4,1,Lushoto,Sunga,1,True,GeoData Consultants Ltd,VWC,Kidege forest,True,2002,Gravity,Gravity,Gravity,VWC,UserGroup,PayMonthly,Other,Soft,Good,Enough,Enough,Spring,Spring,Groundwater,Other,Other,NonFunctional
49115,10,01/03/2013 00:00:00,Germany Republi,1152,CES,37.16440915,-3.26589011,Area 17 Namba 50,0,Pangani,Kimira,Kilimanjaro,3,5,Hai,Masama Mashariki,100,True,GeoData Consultants Ltd,Water Board,Losaa-Kia water supply,True,1999,Gravity,Gravity,Gravity,WaterBoard,UserGroup,PayPerBucket,PerBucket,Soft,Good,Enough,Enough,Spring,Spring,Groundwater,CommunalStandpipe,CommunalStandpipe,Functional
42334,300,03/24/2011 00:00:00,Co,305,Co,36.99632399,-7.59746059,Kwa Mpalle,0,Rufiji,Mwaya,Morogoro,5,1,Kilosa,Kidodi,90,True,GeoData Consultants Ltd,VWC,It,True,2011,Gravity,Gravity,Gravity,WUG,UserGroup,PayWhenSchemeFails,OnFailure,Soft,Good,Enough,Enough,River,RiverOrLake,Surface,CommunalStandpipe,CommunalStandpipe,Functional
73881,3600,04/04/2011 00:00:00,Wananchi,1973,wananchi,34.47805761,-9.17165317,Chekechea,0,Rufiji,Utunidza,Iringa,11,3,Njombe,Wangama,1,True,GeoData Consultants Ltd,VWC,wangama water supply scheme,True,2007,Gravity,Gravity,Gravity,VWC,UserGroup,PayAnnually,Annually,Soft,Good,Enough,Enough,Spring,Spring,Groundwater,CommunalStandpipe,CommunalStandpipe,Functional
27782,500,01/03/2011 00:00:00,Tz Japan,1636,DWE,34.91154867,-8.95504602,Kwa Benito Mlawa,0,Rufiji,Maguvani,Iringa,11,4,Njombe,Igongolo,80,True,GeoData Consultants Ltd,VWC,Igongolo gravity water sche,False,2006,Gravity,Gravity,Gravity,VWC,UserGroup,PayMonthly,Other,Soft,Good,Enough,Enough,Spring,Spring,Groundwater,CommunalStandpipe,CommunalStandpipe,Functional
13172,50,03/04/2011 00:00:00,Tassaf,57,DWE,38.76827559,-6.70125171,Ccm,0,WamiRuvu,Njia Panda,Pwani,6,2,Kibaha,Mlandizi,50,True,GeoData Consultants Ltd,Parastatal,upper Ruvu,True,2010,Mono,Mono,Motorpump,Parastatal,Parastatal,PayPerBucket,PerBucket,Soft,Good,Enough,Enough,River,RiverOrLake,Surface,CommunalStandpipe,CommunalStandpipe,Functional
40293,300,03/24/2011 00:00:00,Danida,-18,DA,38.97373281,-6.48484484,Mrisho Muumin,0,WamiRuvu,Kasiki,Pwani,6,1,Bagamoyo,Zinga/Ikerege,50,True,GeoData Consultants Ltd,Company,Bagamoyo wate,True,1990,KSB,Submersible,Submersible,VWC,UserGroup,PayMonthly,Other,Soft,Good,Enough,Enough,River,RiverOrLake,Surface,CommunalStandpipe,CommunalStandpipe,NonFunctional
62988,7,03/19/2013 00:00:00,Germany Republi,1688,CES,37.24824508,-3.18072727,Bustanini,0,Pangani,Nkowanja,Kilimanjaro,3,5,Hai,Machame Kaskazini,1,True,GeoData Consultants Ltd,Water Board,Machame water supply,True,2008,Gravity,Gravity,Gravity,WaterBoard,UserGroup,PayPerBucket,PerBucket,Soft,Good,Enough,Enough,Spring,Spring,Groundwater,CommunalStandpipe,CommunalStandpipe,NonFunctional
24496,2500,03/31/2011 00:00:00,Government Of Tanzania,1194,DWE,38.36096808,-4.8446115999999995,Kwa Mzee Pelepeta,0,Pangani,Ngaye,Tanga,4,1,Lushoto,Soni,1,True,GeoData Consultants Ltd,VWC,Mkuzu forest,True,1969,Gravity,Gravity,Gravity,VWC,UserGroup,PayMonthly,Other,Soft,Good,Enough,Enough,Spring,Spring,Groundwater,CommunalStandpipe,CommunalStandpipe,Functional
15965,20,02/24/2011 00:00:00,Private,13,Da,38.83916312,-6.58618815,Mama Thabit,0,WamiRuvu,Shangweni,Pwani,6,1,Bagamoyo,Yombo,32,False,GeoData Consultants Ltd,Private operator,Bagamoyo Wate,True,2003,Mono,Mono,Motorpump,VWC,UserGroup,PayPerBucket,PerBucket,Soft,Good,Enough,Enough,River,RiverOrLake,Surface,CommunalStandpipe,CommunalStandpipe,Functional
50975,100,01/19/2013 00:00:00,Community,1073,Community,29.71241582,-4.68334379,Kwa Mzee Richard Balilula,0,LakeTanganyika,Ccm Centre,Kigoma,16,3,Kigoma Rural,Bitale,50,True,GeoData Consultants Ltd,VWC,Mkongoro One,True,1980,Gravity,Gravity,Gravity,VWC,UserGroup,PayMonthly,Other,Soft,Good,Enough,Enough,River,RiverOrLake,Surface,CommunalStandpipe,CommunalStandpipe,NeedsRepair
3077,500,04/15/2011 00:00:00,Rc Church,1880,ACRA,34.73893793,-9.197161999999999,Kwa Mhando,0,Rufiji,Kati,Iringa,11,4,Njombe,Mdandu,75,True,GeoData Consultants Ltd,WUA,mtwango water supply scheme,True,2009,Gravity,Gravity,Gravity,WUA,UserGroup,PayMonthly,Other,Soft,Good,Enough,Enough,Spring,Spring,Groundwater,CommunalStandpipe,CommunalStandpipe,Functional
8545,1000,03/13/2013 00:00:00,Villagers,1436,Villagers,37.91363269,-4.15094043,Kwa Clemence,0,Pangani,Chambishi,Kilimanjaro,3,3,Same,Mshewa,32,True,GeoData Consultants Ltd,Water authority,Tutu,True,2009,Gravity,Gravity,Gravity,VWC,UserGroup,PayAnnually,Annually,Soft,Good,Enough,Enough,Spring,Spring,Groundwater,CommunalStandpipe,CommunalStandpipe,NonFunctional
